Country,city,lat,lng
Afghanistan,Aībak,36.261,68.04
Afghanistan,Balkh,36.7501,66.8997
Afghanistan,Bāmyān,34.8211,67.521
Afghanistan,Maīdān Shahr,34.3956,68.8662
Afghanistan,Tarīn Kōṯ,32.6333,65.8667
Afghanistan,Kōṯah-ye ‘As̲h̲rō,34.45,68.8
Afghanistan,Herāt,34.33,62.17
Afghanistan,Shibirghān,36.658,65.7383
Afghanistan,Khōst,33.3395,69.9204
Afghanistan,Qal‘ah-ye Now,34.983,63.1333
Afghanistan,Baghlān,36.1393,68.6993
Afghanistan,Mazār-e Sharīf,36.7,67.1
Afghanistan,Sharan,33.1757,68.7304
Afghanistan,Karukh,34.4868,62.5918
Afghanistan,Ghaznī,33.5633,68.4178
Afghanistan,Kandahār,31.61,65.6949
Afghanistan,Pul-e ‘Alam,33.9953,69.0227
Afghanistan,Lashkar Gāh,31.583,64.36
Afghanistan,Farāh,32.3917,62.0968
Afghanistan,Kabul,34.5167,69.1833
Afghanistan,Kunduz,36.728,68.8725
Afghanistan,Zarghūn Shahr,32.85,68.4167
Afghanistan,Gardēz,33.6001,69.2146
Afghanistan,Andkhōy,36.9317,65.1015
Afghanistan,Bāzārak,35.3129,69.5152
Afghanistan,Pul-e Khumrī,35.9511,68.7011
Afghanistan,Asadābād,34.866,71.15
Afghanistan,Fayrōz Kōh,34.5167,65.25
Afghanistan,Nīlī,33.7218,66.1302
Afghanistan,Mehtar Lām,34.65,70.1667
Afghanistan,Barakī Barak,33.9667,68.9667
Afghanistan,Qalāt,32.1123,66.8868
Afghanistan,Sar-e Pul,36.2154,65.9325
Afghanistan,Chārīkār,35.0183,69.1679
Afghanistan,Maīmanah,35.9302,64.7701
Afghanistan,Jalālābād,34.4415,70.4361
Afghanistan,Faīẕābād,37.1298,70.5792
Afghanistan,Pārūn,35.4206,70.9226
Afghanistan,Maḩmūd-e Rāqī,35.0167,69.3333
Afghanistan,Zaranj,31.112,61.887
Afghanistan,Tāluqān,36.73,69.54
Albania,Ersekë,40.3333,20.6833
Albania,Vlorë,40.4774,19.4982
Albania,Rrëshen,41.7833,19.8167
Albania,Pogradec,40.9,20.664
Albania,Korçë,40.6167,20.7667
Albania,Çorovodë,40.5167,20.2333
Albania,Pukë,42.0333,19.8833
Albania,Burrel,41.626,20.016
Albania,Tirana,41.3275,19.8189
Albania,Berat,40.71,19.972
Albania,Kukës,42.083,20.434
Albania,Shkodër,42.0685,19.5188
Albania,Krujë,41.519,19.797
Albania,Tepelenë,40.2833,20.0333
Albania,Elbasan,41.1215,20.0838
Albania,Gramsh,40.8667,20.2
Albania,Fier,40.73,19.573
Albania,Gjirokastër,40.079,20.149
Albania,Durrës,41.3178,19.4482
Albania,Lezhë,41.788,19.654
Albania,Sarandë,39.877,20
Albania,Peshkopi,41.6833,20.4333
Albania,Bajram Curri,42.3333,20.0833
Albania,Përmet,40.234,20.352
Albania,Lushnjë,40.94,19.716
Albania,Librazhd,41.2,20.3667
Algeria,Tamanrasset,22.785,5.5228
Algeria,Biskra,34.86,5.73
Algeria,Algiers,36.7631,3.0506
Algeria,Aïn Sefra,32.7604,-0.5799
Algeria,I-n-Amguel,23.6939,5.1647
Algeria,Bejaïa,36.7604,5.07
Algeria,Timimoun,29.2365,0.27
Algeria,Tlemcen,34.8904,-1.32
Algeria,El Tarf,36.7672,8.3138
Algeria,Skikda,36.8804,6.9
Algeria,Tindouf,27.6742,-8.1478
Algeria,Souk Ahras,36.2904,7.95
Algeria,Touggourt,33.1,6.06
Algeria,Abadla,31.0171,-2.7333
Algeria,Tipasa,36.5897,2.4475
Algeria,I-n-Amenas,28.0503,9.55
Algeria,Bordj Bou Arreridj,36.059,4.63
Algeria,Mila,36.4503,6.2644
Algeria,Aïn Defla,36.2641,1.9679
Algeria,Aïn Temouchent,35.2975,-1.1404
Algeria,Sidi Bel Abbès,35.1903,-0.64
Algeria,Relizane,35.7373,0.556
Algeria,Chlef,36.1704,1.32
Algeria,Tissemsilt,35.6072,1.8108
Algeria,Adrar,27.87,-0.29
Algeria,Laghouat,33.81,2.88
Algeria,Blida,36.4203,2.83
Algeria,Djanet,24.5529,9.4823
Algeria,Beni Ounif,32.0493,-1.2514
Algeria,Hassi Messaoud,31.7023,6.0545
Algeria,Mascara,35.4004,0.14
Algeria,Ghardaïa,32.49,3.67
Algeria,Médéa,36.2704,2.77
Algeria,Jijel,36.822,5.766
Algeria,Oran,35.71,-0.62
Algeria,El Oued,33.3704,6.86
Algeria,Ouargla,31.97,5.34
Algeria,M’Sila,35.7,4.545
Algeria,Oum el Bouaghi,35.85,7.15
Algeria,Khenchela,35.4358,7.1433
Algeria,Tébessa,35.4104,8.12
Algeria,Djelfa,34.68,3.25
Algeria,Guelma,36.466,7.428
Algeria,El Bayadh,33.6904,1.01
Algeria,Naama,33.2667,-0.3167
Algeria,Constantine,36.36,6.5999
Algeria,Illizi,26.4834,8.4666
Algeria,Mostaganem,35.9404,0.09
Algeria,Annaba,36.92,7.76
Algeria,Tiaret,35.3804,1.32
Algeria,Saïda,34.8404,0.14
Algeria,Boumerdes,36.759,3.4748
Algeria,Reggane,26.7,0.1666
Algeria,El Golea,30.5666,2.8833
Algeria,Bouira,36.3805,3.9
Algeria,Sétif,36.18,5.4
Algeria,Béchar,31.6111,-2.23
Algeria,Tizi Ouzou,36.8,4.0333
Algeria,I-n-Salah,27.2166,2.4666
Algeria,Batna,35.57,6.17
American Samoa,Pago Pago,-14.274,-170.7046
Andorra,Canillo,42.567,1.5981
Andorra,Escaldes-Engordany,42.5085,1.5385
Andorra,Sant Julià de Lòria,42.4664,1.4933
Andorra,La Massana,42.5434,1.5148
Andorra,Andorra la Vella,42.5,1.5165
Andorra,Encamp,42.5361,1.5828
Andorra,Ordino,42.5563,1.5327
Angola,Lobito,-12.37,13.5412
Angola,Capenda Camulemba,-9.4196,18.43
Angola,Luena,-11.79,19.9
Angola,Sumbe,-11.21,13.85
Angola,Caxito,-8.5795,13.66
Angola,Cazombo,-11.8896,22.9
Angola,Cangamba,-13.6996,19.86
Angola,Benguela,-12.5783,13.4072
Angola,Chitado,-17.3196,13.92
Angola,Chibemba,-15.7496,14.08
Angola,Xangongo,-16.74,14.97
Angola,Quibala,-10.7296,14.98
Angola,Cacolo,-10.1496,19.26
Angola,Saurimo,-9.6596,20.39
Angola,Soio,-6.1296,12.37
Angola,Chibia,-15.1896,13.69
Angola,Calenga,-11.3196,16.2
Angola,Calulo,-9.9996,14.9
Angola,Huambo,-12.75,15.76
Angola,Cabinda,-5.5596,12.19
Angola,Songo,-7.3496,14.85
Angola,Cubal,-13.0396,14.24
Angola,Camacupa,-12.0196,17.47
Angola,Namibe,-15.19,12.16
Angola,Mbanza Congo,-6.2696,14.24
Angola,Uíge,-7.62,15.05
Angola,Ondjiva,-17.0696,15.73
Angola,Quipungo,-14.8295,14.55
Angola,Luau,-10.7095,22.23
Angola,Menongue,-14.6666,17.7
Angola,Cuito,-12.38,16.94
Angola,Tômbua,-15.8,11.86
Angola,Lucapa,-8.4196,20.74
Angola,Malanje,-9.54,16.34
Angola,Muconda,-10.5996,21.32
Angola,Cuito Cuanavale,-15.1596,19.17
Angola,Lubango,-14.91,13.49
Angola,Mavinga,-15.7895,20.36
Angola,Luanda,-8.8383,13.2344
Angola,Dundo,-7.38,20.83
Angola,Ambriz,-7.855,13.125
Angola,Dondo,-9.69,14.43
Angola,Luiana,-17.3695,23
Angola,Camabatela,-8.1896,15.37
Angola,Mucusso,-18.0195,21.43
Angola,Uacu Cungo,-11.3595,15.12
Angola,N’dalatando,-9.2995,14.91
Angola,Nzeto,-7.2296,12.86
Angola,Lubango,-14.9167,13.5
Antigua and Barbuda,Saint John’s,17.118,-61.85
Argentina,Ingeniero Guillermo N. Juárez,-23.9,-61.85
Argentina,Junín,-34.5846,-60.9589
Argentina,Susques,-23.4167,-66.4833
Argentina,Comallo,-41.0333,-70.2666
Argentina,Rinconada,-22.4329,-66.1666
Argentina,Olavarría,-36.9,-60.33
Argentina,Pergamino,-33.8996,-60.57
Argentina,Rodeo,-30.2156,-69.14
Argentina,Pampa del Infierno,-26.5166,-61.1666
Argentina,Rafaela,-31.25,-61.5
Argentina,Viedma,-40.8,-63
Argentina,Lobos,-35.1849,-59.0947
Argentina,Charata,-27.2163,-61.2
Argentina,General Conesa,-40.1,-64.4333
Argentina,San Julián,-49.3,-67.7167
Argentina,La Rioja,-29.41,-66.85
Argentina,Tunuyán,-33.5662,-69.0167
Argentina,Eldorado,-26.2,-54.6
Argentina,Gobernador Gregores,-48.7666,-70.25
Argentina,Cafayate,-26.0829,-65.9666
Argentina,San Miguel de Tucumán,-26.816,-65.2166
Argentina,Salta,-24.7834,-65.4166
Argentina,Necochea,-38.56,-58.75
Argentina,Campana,-34.16,-58.96
Argentina,Concordia,-31.3896,-58.03
Argentina,Luján,-34.5796,-59.11
Argentina,Chumbicha,-28.8666,-66.2333
Argentina,Rawson,-43.3,-65.1
Argentina,Presidencia Roque Sáenz Peña,-26.79,-60.45
Argentina,San Rafael,-34.6,-68.3333
Argentina,Villalonga,-39.8829,-62.5833
Argentina,Veinticinco de Mayo,-37.8,-67.6833
Argentina,La Plata,-34.9096,-57.96
Argentina,Carhué,-37.1829,-62.7333
Argentina,Tandil,-37.32,-59.15
Argentina,Zárate,-34.0896,-59.04
Argentina,Villa Rumipal,-32.1833,-64.4833
Argentina,Las Lajas,-38.5163,-70.3666
Argentina,Sarmiento,-45.6,-69.0833
Argentina,General Martín Miguel de Güemes,-24.6666,-65.05
Argentina,Esquel,-42.9,-71.3166
Argentina,Sierra Colorada,-40.5829,-67.8
Argentina,Dolores,-36.33,-57.69
Argentina,Abra Pampa,-22.7167,-65.7
Argentina,Victorica,-36.2163,-65.45
Argentina,Córdoba,-31.4,-64.1823
Argentina,Victoria,-32.61,-60.18
Argentina,San Salvador de Jujuy,-24.1833,-65.3
Argentina,Veinticinco de Mayo,-35.43,-60.18
Argentina,La Paz,-33.4661,-67.55
Argentina,Comandante Fontana,-25.3333,-59.6833
Argentina,Los Blancos,-23.5996,-62.6
Argentina,Chilecito,-29.1655,-67.5
Argentina,Darregueira,-37.6996,-63.1666
Argentina,Lincoln,-34.88,-61.5399
Argentina,Chascomús,-35.5662,-58.0166
Argentina,San Antonio de los Cobres,-24.1829,-66.35
Argentina,Trancas,-26.2167,-65.2833
Argentina,El Maitén,-42.05,-71.1666
Argentina,Corrientes,-27.49,-58.81
Argentina,Balcarce,-37.8333,-58.25
Argentina,Reconquista,-29.1395,-59.65
Argentina,Mar del Plata,-38,-57.58
Argentina,Villa María,-32.41,-63.26
Argentina,Zapala,-38.9,-70.0667
Argentina,Buenos Aires,-34.6025,-58.3975
Argentina,Chepes,-31.35,-66.6
Argentina,Puerto Deseado,-47.75,-65.9
Argentina,Gualeguaychú,-33.02,-58.52
Argentina,Coronel Suárez,-37.4666,-61.9166
Argentina,Perito Moreno,-46.6,-70.9334
Argentina,Uspallata,-32.5931,-69.346
Argentina,Trelew,-43.25,-65.33
Argentina,San Carlos de Bariloche,-41.15,-71.3
Argentina,Rosario,-32.9511,-60.6663
Argentina,Alto Río Senguer,-45.0333,-70.8333
Argentina,San Fernando del Valle de Catamarca,-28.47,-65.78
Argentina,Malargüe,-35.4661,-69.5833
Argentina,Tinogasta,-28.0666,-67.5666
Argentina,Mendoza,-32.8833,-68.8166
Argentina,Joaquín V. González,-25.0833,-64.1834
Argentina,Benito Juárez,-37.6655,-59.8
Argentina,Frías,-28.6496,-65.15
Argentina,Mar de Ajó,-36.7162,-56.6766
Argentina,General Pico,-35.6596,-63.77
Argentina,Punta Alta,-38.88,-62.08
Argentina,San Juan,-31.55,-68.52
Argentina,Alta Gracia,-31.66,-64.43
Argentina,San Pedro,-24.2196,-64.87
Argentina,Río Gallegos,-51.6333,-69.2166
Argentina,San Francisco,-31.43,-62.09
Argentina,Tartagal,-22.55,-63.81
Argentina,Resistencia,-27.46,-58.99
Argentina,Añatuya,-28.4661,-62.8333
Argentina,Bahía Blanca,-38.74,-62.265
Argentina,Ingeniero Jacobacci,-41.3,-69.5833
Argentina,Bell Ville,-32.6,-62.68
Argentina,Comodoro Rivadavia,-45.87,-67.5
Argentina,Neuquén,-38.95,-68.06
Argentina,Comandante Luis Piedra Buena,-49.9745,-68.9035
Argentina,Chivilcoy,-34.9,-60.04
Argentina,Formosa,-26.1728,-58.1828
Argentina,Santa Rosa,-36.62,-64.3
Argentina,Libertador General San Martín,-23.8195,-64.79
Argentina,Las Lomitas,-24.6996,-60.6
Argentina,Villa Mercedes,-33.6896,-65.47
Argentina,Cutral-Có,-38.94,-69.24
Argentina,San Lorenzo,-28.12,-58.77
Argentina,Río Colorado,-38.9666,-64.0833
Argentina,Cerrillos,-24.8996,-65.4833
Argentina,Río Mayo,-45.6834,-70.2666
Argentina,Nueve de Julio,-35.446,-60.89
Argentina,Tres Arroyos,-38.37,-60.2699
Argentina,Mercedes,-34.66,-59.44
Argentina,Monte Quemado,-25.7996,-62.8666
Argentina,Humahuaca,-23.2,-65.3499
Argentina,Río Tercero,-32.1796,-64.12
Argentina,Belén,-27.6496,-67.0333
Argentina,San Luis,-33.3,-66.35
Argentina,Sunchales,-30.9329,-61.5666
Argentina,Villa Constitución,-33.23,-60.35
Argentina,Azul,-36.7796,-59.87
Argentina,Pedro Luro,-39.4833,-62.6833
Argentina,San Nicolás de los Arroyos,-33.33,-60.24
Argentina,Río Cuarto,-33.13,-64.35
Argentina,Mercedes,-29.1796,-58.08
Argentina,Chamical,-30.3496,-66.3167
Argentina,San Antonio Oeste,-40.7329,-64.9333
Argentina,Telsen,-42.3996,-66.95
Argentina,Villa Carlos Paz,-31.42,-64.5
Argentina,Chacabuco,-34.65,-60.49
Argentina,Venado Tuerto,-33.7496,-61.97
Argentina,San Ramón de la Nueva Orán,-23.14,-64.32
Argentina,Posadas,-27.3578,-55.8851
Argentina,Santa Fe,-31.6239,-60.69
Argentina,Villa Ángela,-27.5833,-60.7167
Argentina,Concepción del Uruguay,-32.48,-58.24
Argentina,Goya,-29.14,-59.27
Argentina,Río Grande,-53.7914,-67.699
Argentina,Gastre,-42.283,-69.2333
Argentina,Castelli,-25.9495,-60.6166
Argentina,Las Heras,-32.825,-68.8017
Argentina,El Calafate,-50.3333,-72.3
Argentina,Choele Choel,-39.2666,-65.6833
Argentina,Vera,-29.4662,-60.2166
Argentina,San Martín,-33.07,-68.49
Argentina,Paraná,-31.7333,-60.5333
Argentina,Puerto Madryn,-42.77,-65.04
Argentina,Chos Malal,-37.383,-70.2666
Argentina,Santiago del Estero,-27.7833,-64.2667
Argentina,San Justo,-30.7829,-60.5833
Argentina,General Roca,-39.02,-67.61
Argentina,Veintiocho de Noviembre,-51.65,-72.3
Argentina,Ushuaia,-54.79,-68.31
Argentina,Gualeguay,-33.15,-59.34
Armenia,Ashtarak,40.3017,44.3592
Armenia,Gyumri,40.7894,43.8475
Armenia,Ijevan,40.8756,45.1492
Armenia,Gavarr,40.3589,45.1267
Armenia,Armavir,40.1545,44.0382
Armenia,Artashat,39.9539,44.5506
Armenia,Hrazdan,40.4941,44.7602
Armenia,Kapan,39.2075,46.4058
Armenia,Yeghegnadzor,39.7611,45.3333
Armenia,Vanadzor,40.8128,44.4883
Armenia,Yerevan,40.1812,44.5136
Armenia,Ijevan,40.8788,45.1485
Aruba,Oranjestad,12.5304,-70.029
Australia,Scottsdale,-41.1495,147.5167
Australia,Bourke,-30.1,145.9333
Australia,Quilpie,-26.6166,144.25
Australia,Queenstown,-42.0829,145.55
Australia,Hughenden,-20.85,144.2
Australia,Three Springs,-29.5333,115.75
Australia,Yamba,-29.423,153.3533
Australia,Ouyen,-35.0662,142.3167
Australia,Kingston South East,-36.8328,139.8501
Australia,Morawa,-29.2163,116
Australia,Newman,-23.3666,119.7333
Australia,McMinns Lagoon,-12.5329,131.05
Australia,Cloncurry,-20.7,140.5
Australia,Penola,-37.383,140.8167
Australia,Oatlands,-42.2996,147.3666
Australia,Ravensthorpe,-33.5829,120.0333
Australia,Townsville,-19.25,146.77
Australia,Canberra,-35.283,149.129
Australia,Barcaldine,-23.5662,145.2834
Australia,Wyndham,-15.374,128.3601
Australia,Wagin,-33.2996,117.35
Australia,Mount Barker,-34.6328,117.6666
Australia,Meekatharra,-26.6,118.4833
Australia,Tumby Bay,-34.3829,136.0833
Australia,Charleville,-26.4,146.25
Australia,Kalbarri,-27.6662,114.1667
Australia,Streaky Bay,-32.8119,134.2149
Australia,Bordertown,-36.3162,140.7666
Australia,Kingston,-42.9911,147.3084
Australia,Port Hedland,-20.3104,118.606
Australia,Kalgoorlie,-30.7354,121.46
Australia,Ballina,-28.8614,153.568
Australia,Wangaratta,-36.36,146.3
Australia,Tamworth,-31.1026,150.9171
Australia,Port Augusta,-32.49,137.77
Australia,Richmond,-33.5995,150.74
Australia,Orange,-33.28,149.1
Australia,Singleton,-32.5695,151.16
Australia,Bongaree,-27.0787,153.1509
Australia,Port Lincoln,-34.7332,135.8666
Australia,Broome,-17.9618,122.2308
Australia,Taree,-31.8976,152.4618
Australia,Horsham,-36.7096,142.19
Australia,Port Pirie,-33.1911,137.99
Australia,Warwick,-28.2292,152.0203
Australia,Batemans Bay,-35.6896,150.2073
Australia,Wagga Wagga,-35.1222,147.34
Australia,Yeppoon,-23.1329,150.7567
Australia,Bowen,-20.0013,148.2087
Australia,Bairnsdale,-37.8296,147.61
Australia,Lithgow,-33.4961,150.1528
Australia,Wollongong,-34.4154,150.89
Australia,Parkes,-33.1296,148.17
Australia,Muswellbrook,-32.2696,150.89
Australia,Gympie,-26.1886,152.6709
Australia,Portland,-38.34,141.59
Australia,Kempsey,-31.0874,152.822
Australia,Port Macquarie,-31.445,152.9187
Australia,Mildura,-34.185,142.1514
Australia,Bundaberg,-24.8791,152.3509
Australia,Shepparton,-36.3746,145.3914
Australia,Griffith,-34.29,146.04
Australia,Mount Isa,-20.7239,139.49
Australia,Roebourne,-20.7829,117.1333
Australia,Bunbury,-33.3443,115.6502
Australia,Devonport,-41.1927,146.3311
Australia,Echuca,-36.1296,144.75
Australia,Burnie,-41.0666,145.9167
Australia,Albany,-35.0169,117.8916
Australia,Geraldton,-28.7666,114.6
Australia,Kwinana,-32.2394,115.7702
Australia,Maryborough,-25.5491,152.7209
Australia,Goulburn,-34.7496,149.7102
Australia,Mount Gambier,-37.8313,140.765
Australia,Katoomba,-33.7069,150.32
Australia,Sale,-38.1096,147.06
Australia,Armidale,-30.5123,151.6675
Australia,Hervey Bay,-25.2887,152.8409
Australia,Kiama,-34.7096,150.84
Australia,Alice Springs,-23.701,133.88
Australia,Traralgon,-38.1996,146.53
Australia,Tweed Heads,-28.1826,153.5466
Australia,Queanbeyan,-35.3546,149.2113
Australia,Melton,-37.6895,144.57
Australia,Dubbo,-32.26,148.5973
Australia,Caboolture,-27.083,152.95
Australia,Lismore,-28.8167,153.2931
Australia,Maitland,-32.721,151.555
Australia,Gawler,-34.6074,138.7264
Australia,Karratha,-20.7304,116.87
Australia,Warrnambool,-38.38,142.47
Australia,Broken Hill,-31.95,141.4331
Australia,Sunbury,-37.5696,144.71
Australia,Tuncurry,-32.1931,152.5266
Australia,Murray Bridge,-35.1296,139.26
Australia,Gladstone,-23.8533,151.2467
Australia,Cairns,-16.8878,145.7633
Australia,Busselton,-33.6564,115.3487
Australia,Katherine,-14.4666,132.2666
Australia,Merimbula,-36.8996,149.9
Australia,Biloela,-24.3936,150.4961
Australia,Ingham,-18.6496,146.1666
Australia,Bathurst,-33.4196,149.57
Australia,Ararat,-37.2795,142.91
Australia,Toowoomba,-27.5645,151.9555
Australia,Wonthaggi,-38.6095,145.59
Australia,Northam,-31.6566,116.6534
Australia,Kununurra,-15.7666,128.7333
Australia,Roma,-26.5594,148.7907
Australia,Nowra,-34.8828,150.6
Australia,Mudgee,-32.5896,149.5801
Australia,Forbes,-33.3896,148.02
Australia,Berri,-34.2829,140.6
Australia,Cobram,-35.9196,145.65
Australia,Scone,-32.0796,150.8501
Australia,Goondiwindi,-28.5548,150.3253
Australia,Tom Price,-22.6935,117.7931
Australia,Wallaroo,-33.9329,137.6333
Australia,Weipa,-12.6666,141.8666
Australia,Longreach,-23.4496,144.25
Australia,Port Douglas,-16.4846,145.4587
Australia,Central Coast,-33.42,151.3
Australia,Cooma,-36.2396,149.12
Australia,Clare,-33.8329,138.6
Australia,Katanning,-33.6996,117.5501
Australia,Proserpine,-20.4162,148.5835
Australia,Smithton,-40.8329,145.1167
Australia,Narrogin,-32.9329,117.1666
Australia,Geelong,-38.1675,144.3956
Australia,Manjimup,-34.2333,116.15
Australia,Seymour,-37.0342,145.1273
Australia,Tumut,-35.3096,148.22
Australia,Byron Bay,-28.6565,153.6129
Australia,Cowra,-33.8296,148.68
Australia,Launceston,-41.4498,147.1302
Australia,Hamilton,-37.7312,142.0234
Australia,Ayr,-19.5702,147.3995
Australia,Colac,-38.3395,143.58
Australia,Ulladulla,-35.3495,150.47
Australia,Swan Hill,-35.3396,143.54
Australia,Kingaroy,-26.539,151.8406
Australia,Emerald,-23.5122,148.1673
Australia,Rockhampton,-23.3639,150.52
Australia,Dalby,-27.1939,151.2657
Australia,Grafton,-29.712,152.9377
Australia,Moranbah,-22.0016,148.038
Australia,Coffs Harbour,-30.3071,153.1123
Australia,Cranbourne,-38.0996,145.2834
Australia,Charters Towers,-20.0809,146.2587
Australia,Innisfail,-17.5313,146.0387
Australia,Inverell,-29.7668,151.1126
Australia,Mandurah,-32.5235,115.7471
Australia,Atherton,-17.2703,145.4694
Australia,Stawell,-37.0596,142.76
Australia,Maryborough,-37.0496,143.73
Australia,Ballarat,-37.5596,143.84
Australia,Narrabri,-30.3319,149.7874
Australia,Gunnedah,-30.987,150.2623
Australia,Moree,-29.4699,149.8301
Australia,Gold Coast,-28.0815,153.4482
Australia,Carnarvon,-24.8998,113.6501
Australia,Bendigo,-36.76,144.28
Australia,Young,-34.3096,148.29
Australia,Victor Harbor,-35.5596,138.6173
Australia,Esperance,-33.8573,121.8889
Australia,Deniliquin,-35.5296,144.95
Australia,Leeton,-34.5449,146.3973
Australia,Mackay,-21.1439,149.15
Australia,Whyalla,-33.025,137.5614
Australia,Onslow,-21.6576,115.0963
Australia,Birdsville,-25.8996,139.3666
Australia,Albury,-36.06,146.92
Australia,Port Denison,-29.2828,114.9166
Australia,Hobart,-42.85,147.295
Australia,Richmond,-20.7163,143.1333
Australia,Winton,-22.3996,143.0333
Australia,Laverton,-28.627,122.404
Australia,Exmouth,-21.9311,114.1233
Australia,Norseman,-32.2,121.7666
Australia,Kingoonya,-30.8996,135.3
Australia,Mount Magnet,-28.0662,117.8167
Australia,Yulara,-25.2405,130.9889
Australia,Wilcannia,-31.5662,143.3833
Australia,Georgetown,-18.3,143.5333
Australia,Woomera,-31.1496,136.8
Australia,Ivanhoe,-32.8996,144.3
Australia,Theodore,-24.9495,150.0833
Australia,Sydney,-33.92,151.1852
Australia,Bedourie,-24.3496,139.4666
Australia,Gingin,-31.3496,115.9
Australia,Southern Cross,-31.2161,119.3167
Australia,Adelaide,-34.935,138.6
Australia,Camooweal,-19.9167,138.1167
Australia,Bicheno,-41.8784,148.2886
Australia,Meningie,-35.6995,139.3333
Australia,Burketown,-17.7161,139.5666
Australia,Eidsvold,-25.3662,151.1333
Australia,Thargomindah,-28,143.8167
Australia,Karumba,-17.4833,140.8334
Australia,Ceduna,-32.0991,133.6623
Australia,Windorah,-25.4332,142.6502
Australia,Leonora,-28.8815,121.328
Australia,Peterborough,-32.9662,138.8333
Australia,Melbourne,-37.82,144.975
Australia,Adelaide River,-13.2495,131.1
Australia,Newcastle,-32.8453,151.815
Australia,Perth,-31.955,115.84
Australia,Halls Creek,-18.2667,127.7667
Australia,Caloundra,-26.8,153.1333
Australia,Darwin,-12.4254,130.85
Australia,Cowell,-33.6829,136.9166
Australia,Pine Creek,-13.8162,131.8167
Australia,Merredin,-31.4828,118.2667
Australia,Boulia,-22.8996,139.9
Australia,Brisbane,-27.455,153.0351
Australia,Pannawonica,-21.6366,116.325
Australia,Andamooka,-30.431,137.1656
Australia,Kimba,-33.1496,136.4334
Austria,Vienna,48.2,16.3666
Austria,Klagenfurt,46.6203,14.31
Austria,Innsbruck,47.2804,11.41
Austria,Graz,47.0778,15.41
Austria,Sankt Pölten,48.2,15.6333
Austria,Salzburg,47.8105,13.04
Austria,Wiener Neustadt,47.816,16.25
Austria,Eisenstadt,47.8333,16.5333
Austria,Bregenz,47.5167,9.7667
Austria,Linz,48.3192,14.2888
Azerbaijan,Qəzyan,39.2015,46.415
Azerbaijan,Göygöl,40.5858,46.3189
Azerbaijan,Qubadlı,39.3444,46.5818
Azerbaijan,Cəbrayıl,39.3992,47.0283
Azerbaijan,Neftçala,39.3768,49.247
Azerbaijan,Ağdam,39.991,46.9274
Azerbaijan,Dəvəçi,41.2012,48.9871
Azerbaijan,Samux,40.7649,46.4087
Azerbaijan,Zəngilan,39.0837,46.6599
Azerbaijan,Qıvraq,39.3994,45.1151
Azerbaijan,Astara,38.456,48.875
Azerbaijan,Ordubad,38.9096,46.0227
Azerbaijan,Heydərabad,39.7229,44.8485
Azerbaijan,Şirvan,39.9323,48.9203
Azerbaijan,Qax,41.4183,46.9204
Azerbaijan,Goranboy,40.6103,46.7897
Azerbaijan,Masallı,39.0278,48.6703
Azerbaijan,Hacıqabul,40.0387,48.9429
Azerbaijan,Daşkəsən,40.5239,46.0819
Azerbaijan,Qazmalar,40.9814,47.8458
Azerbaijan,Oğuz,41.0708,47.4583
Azerbaijan,Siyəzən,41.0781,49.1156
Azerbaijan,İmişli,39.8724,48.0649
Azerbaijan,İsmayıllı,40.7848,48.1514
Azerbaijan,Quba,41.3611,48.5134
Azerbaijan,Ağdaş,40.647,47.4738
Azerbaijan,Laçın,39.6434,46.5462
Azerbaijan,Yardımlı,38.9077,48.2405
Azerbaijan,Saatlı,39.9321,48.3689
Azerbaijan,Mingəçevir,40.7639,47.0595
Azerbaijan,Beyləqan,39.7756,47.6186
Azerbaijan,Şərur,39.5544,44.9826
Azerbaijan,Yevlax,40.6172,47.15
Azerbaijan,Sabirabad,40.0087,48.477
Azerbaijan,Gədəbəy,40.5656,45.8161
Azerbaijan,Tərtər,40.342,46.9316
Azerbaijan,Füzuli,39.6009,47.1453
Azerbaijan,Şəki,41.1923,47.1705
Azerbaijan,Ağcabədi,40.0501,47.4594
Azerbaijan,Qazax,41.0925,45.3656
Azerbaijan,Balakən,41.7263,46.4048
Azerbaijan,Xaçmaz,41.4643,48.8057
Azerbaijan,Qusar,41.4275,48.4302
Azerbaijan,Ağstafa,41.1148,45.4468
Azerbaijan,Kürdəmir,40.3426,48.1565
Azerbaijan,Kəlbəcər,40.1098,46.0445
Azerbaijan,Zərdab,40.2184,47.7121
Azerbaijan,Bərdə,40.3758,47.1262
Azerbaijan,Sumqayıt,40.58,49.63
Azerbaijan,Ucar,40.5121,47.6519
Azerbaijan,Salyan,39.5962,48.9848
Azerbaijan,Şəmkir,40.8297,46.0178
Azerbaijan,Naftalan,40.5082,46.8203
Azerbaijan,Biləsuvar,39.4583,48.545
Azerbaijan,Ağsu,40.5692,48.3965
Azerbaijan,Lerik,38.7739,48.415
Azerbaijan,Cəlilabad,39.2096,48.4919
Azerbaijan,Qəbələ,40.9825,47.8491
Azerbaijan,Zaqatala,41.6316,46.6448
Azerbaijan,Xırdalan,40.4481,49.755
Azerbaijan,Lənkəran,38.754,48.8511
Azerbaijan,Ağdam,40.9053,45.5564
Azerbaijan,Xocavənd,39.795,47.1117
Azerbaijan,Şuşa,39.7601,46.7499
Azerbaijan,Xocalı,39.913,46.7903
Azerbaijan,Baku,40.3953,49.8622
Azerbaijan,Tovuz,40.9922,45.6289
Azerbaijan,Gəncə,40.685,46.35
Azerbaijan,Qobustan,40.5336,48.9282
Azerbaijan,Xankəndi,39.8156,46.752
Azerbaijan,Naxçıvan,39.2092,45.4122
Azerbaijan,Göyçay,40.6534,47.7406
Azerbaijan,Xızı,40.9085,49.0748
Azerbaijan,Şahbuz,39.4072,45.5739
Bahrain,Manama,26.2361,50.5831
Bangladesh,Rangpur,25.75,89.28
Bangladesh,Jamālpur,24.9004,89.95
Bangladesh,Jessore,23.1704,89.2
Bangladesh,Sylhet,24.9036,91.8736
Bangladesh,Nawābganj,24.5804,88.35
Bangladesh,Pābna,24.0004,89.25
Bangladesh,Rājshāhi,24.375,88.605
Bangladesh,Mymensingh,24.7504,90.38
Bangladesh,Nārāyanganj,23.6204,90.5
Bangladesh,Tāngāil,24.25,89.92
Bangladesh,Barisāl,22.7004,90.375
Bangladesh,Khulna,22.84,89.56
Bangladesh,Comilla,23.4704,91.17
Bangladesh,Saidpur,25.8004,89
Bangladesh,Dhaka,23.7231,90.4086
Bangladesh,Chittagong,22.33,91.8
Barbados,Bridgetown,13.102,-59.6165
Belarus,Baranavichy,53.1368,26.0134
Belarus,Lida,53.8885,25.2846
Belarus,Minsk,53.9,27.5666
Belarus,Horad Barysaw,54.226,28.4922
Belarus,Vitsyebsk,55.1887,30.1853
Belarus,Brest,52.1,23.7
Belarus,Pinsk,52.1279,26.0941
Belarus,Polatsk,55.4894,28.786
Belarus,Maladzyechna,54.3188,26.8653
Belarus,Homyel’,52.43,31
Belarus,Babruysk,53.1266,29.1928
Belarus,Mazyr,52.046,29.2722
Belarus,Orsha,54.5153,30.4215
Belarus,Mahilyow,53.8985,30.3247
Belarus,Hrodna,53.6779,23.8341
Belgium,Arlon,49.6833,5.8167
Belgium,Hasselt,50.964,5.484
Belgium,Gent,51.03,3.7
Belgium,Namur,50.4704,4.87
Belgium,Mons,50.446,3.939
Belgium,Liège,50.63,5.58
Belgium,Brussels,50.8333,4.3333
Belgium,Charleroi,50.4204,4.45
Belgium,Bruges,51.2204,3.23
Belgium,Antwerp,51.2204,4.415
Belize,Belize City,17.4987,-88.1884
Belize,Punta Gorda,16.1003,-88.81
Belize,San Ignacio,17.156,-89.061
Belize,Dangriga,16.97,-88.22
Belize,Orange Walk,18.0904,-88.56
Belize,Belmopan,17.252,-88.7671
Belize,Corozal,18.398,-88.388
Benin,Dogbo,6.8167,1.7833
Benin,Kandi,11.1304,2.94
Benin,Ouidah,6.3604,2.09
Benin,Sakété,6.7362,2.6587
Benin,Savalou,7.9281,1.9756
Benin,Abomey,7.1904,1.99
Benin,Natitingou,10.3204,1.39
Benin,Djougou,9.7004,1.68
Benin,Lokossa,6.615,1.715
Benin,Cotonou,6.4,2.52
Benin,Parakou,9.34,2.62
Benin,Porto-Novo,6.4833,2.6166
Bermuda,Hamilton,32.2942,-64.7839
Bhutan,Haa,27.3685,89.2918
Bhutan,Thimphu,27.473,89.639
Bhutan,Mongar,27.2747,91.2396
Bhutan,Samdrup Jongkhar,26.8007,91.5052
Bhutan,Pemagatshel,27.038,91.4031
Bhutan,Punakha,27.6333,89.8333
Bhutan,Trashi Yangtse,27.6116,91.498
Bhutan,Samtse,26.899,89.0995
Bhutan,Tsimasham,27.0989,89.536
Bhutan,Trongsa,27.5026,90.5072
Bhutan,Zhemgang,27.2169,90.6579
Bhutan,Lhuentse,27.6679,91.1839
Bhutan,Tsirang,27.0219,90.1229
Bhutan,Jakar,27.5492,90.7525
Bhutan,Paro,27.3833,89.5167
Bhutan,Gasa,27.9067,89.7304
Bhutan,Trashigang,27.3331,91.5542
Bhutan,Sarpang,26.8639,90.2674
Bhutan,Daga,27.0753,89.8769
Bhutan,Wangdue Phodrang,27.4333,89.9167
Bolivia,Roboré,-18.3295,-59.76
Bolivia,Cobija,-11.0333,-68.7333
Bolivia,Santa Ana de Yacuma,-13.76,-65.58
Bolivia,Riberalta,-10.983,-66.1
Bolivia,Montero,-17.3496,-63.26
Bolivia,Rurrenabaque,-14.46,-67.56
Bolivia,Tarija,-21.5167,-64.75
Bolivia,Guayaramerín,-10.83,-65.41
Bolivia,San Rafael,-16.7795,-60.68
Bolivia,Potosí,-19.5696,-65.75
Bolivia,Charaña,-17.5996,-69.4666
Bolivia,La Paz,-16.498,-68.15
Bolivia,Quillacollo,-17.4,-66.28
Bolivia,Portachuelo,-17.36,-63.4
Bolivia,Villazón,-22.0796,-65.6
Bolivia,Llica,-19.8496,-68.25
Bolivia,Uyuni,-20.46,-66.83
Bolivia,Santa Cruz,-17.7539,-63.226
Bolivia,Puerto Quijarro,-17.7796,-57.77
Bolivia,Sabaya,-19.0163,-68.3833
Bolivia,Sicasica,-17.33,-67.73
Bolivia,Oruro,-17.98,-67.13
Bolivia,Trinidad,-14.8334,-64.9
Bolivia,Cuevo,-20.45,-63.53
Bolivia,Bermejo,-22.7296,-64.35
Bolivia,Puerto Acosta,-15.4996,-69.1667
Bolivia,Padilla,-19.2996,-64.31
Bolivia,Aiquile,-18.1895,-65.18
Bolivia,Villa Martín Colchak,-20.7666,-67.7833
Bolivia,Puerto Suárez,-18.9496,-57.85
Bolivia,Uncia,-18.47,-66.57
Bolivia,San Matías,-16.36,-58.42
Bolivia,San Carlos,-17.4,-63.73
Bolivia,Camargo,-20.6396,-65.21
Bolivia,Camiri,-20.05,-63.52
Bolivia,San José de Chiquitos,-17.85,-60.78
Bolivia,Challapata,-18.8996,-66.78
Bolivia,Villamontes,-21.2496,-63.5
Bolivia,Achacachi,-16.0833,-68.6666
Bolivia,Betanzos,-19.56,-65.45
Bolivia,San Ramón,-13.2896,-64.71
Bolivia,Puerto Heath,-12.4996,-68.6666
Bolivia,Quime,-16.98,-67.22
Bolivia,Puerto Villarroel,-16.87,-64.78
Bolivia,Tarabuco,-19.18,-64.9199
Bolivia,Coroico,-16.1896,-67.72
Bolivia,Apolo,-14.7196,-68.42
Bolivia,Corocoro,-17.1696,-68.45
Bolivia,Llallagua,-18.42,-66.64
Bolivia,Tupiza,-21.4396,-65.72
Bolivia,San Javier,-16.2896,-62.5
Bolivia,Baures,-13.58,-63.5801
Bolivia,Vallegrande,-18.4896,-64.11
Bolivia,Cliza,-17.59,-65.93
Bolivia,Sucre,-19.041,-65.2595
Bolivia,Reyes,-14.3096,-67.37
Bolivia,Charagua,-19.7996,-63.22
Bolivia,San Borja,-14.8196,-66.85
Bolivia,Piso Firme,-13.683,-61.8666
Bolivia,Santa Cruz de la Sierra,-17.8,-63.1667
Bolivia,Cochabamba,-17.41,-66.17
Bolivia,San Ignacio de Velasco,-16.3696,-60.96
Bolivia,Sorata,-15.79,-68.6601
Bolivia,Magdalena,-13.2601,-64.0528
Bolivia,Entre Ríos,-21.53,-64.19
Bolivia,Samaipata,-18.18,-63.77
Bolivia,Ascensión,-15.6996,-63.08
Bolivia,San Lorenzo,-21.4799,-64.77
Bolivia,Punata,-17.55,-65.84
Bolivia,Viacha,-16.65,-68.3
Bosnia and Herzegovina,Banja Luka,44.7804,17.18
Bosnia and Herzegovina,Zenica,44.22,17.92
Bosnia and Herzegovina,Sarajevo,43.85,18.383
Bosnia and Herzegovina,Prijedor,44.9804,16.7
Bosnia and Herzegovina,Brčko,44.87,18.8101
Bosnia and Herzegovina,Mostar,43.3505,17.82
Bosnia And Herzegovina,Tuzla,44.5505,18.68
Botswana,Muhembo,-18.2996,21.8
Botswana,Lokwabe,-24.1696,21.83
Botswana,Tsau,-20.1596,22.46
Botswana,Lobatse,-25.2196,25.68
Botswana,Lehututu,-23.9696,21.87
Botswana,Ramotswa,-24.8716,25.8699
Botswana,Kanye,-24.9696,25.34
Botswana,Molepolole,-24.4,25.51
Botswana,Nokaneng,-19.6696,22.27
Botswana,Maun,-19.9896,23.42
Botswana,Tshabong,-26.0095,22.4
Botswana,Mochudi,-24.377,26.152
Botswana,Masunga,-20.6245,27.4488
Botswana,Selibe Phikwe,-21.9758,27.8347
Botswana,Sowa Town,-20.5636,26.2244
Botswana,Kasane,-17.8096,25.15
Botswana,Ghanzi,-21.6996,21.64
Botswana,Mahalapye,-23.1,26.82
Botswana,Francistown,-21.17,27.5
Botswana,Palapye,-22.5596,27.13
Botswana,Nata,-20.2095,26.19
Botswana,Gaborone,-24.6463,25.9119
Botswana,Mopipi,-21.1795,24.88
Botswana,Serowe,-22.39,26.71
Botswana,Jwaneng,-24.6017,24.7281
Brazil,Araxá,-19.5796,-46.95
Brazil,Tupã,-21.93,-50.52
Brazil,Itapeva,-23.9796,-48.88
Brazil,Franca,-20.53,-47.39
Brazil,Valença,-13.3596,-39.08
Brazil,Ituiutaba,-18.97,-49.46
Brazil,Paulo Afonso,-9.3307,-38.2657
Brazil,Itabuna,-14.7896,-39.28
Brazil,Codó,-4.4796,-43.88
Brazil,Penápolis,-21.41,-50.08
Brazil,Breves,-1.68,-50.49
Brazil,Concórdia,-27.23,-52.03
Brazil,Imperatriz,-5.52,-47.49
Brazil,Foz do Iguaçu,-25.5235,-54.53
Brazil,Santana,-0.0396,-51.18
Brazil,Santa Inês,-3.66,-45.39
Brazil,Itaberaba,-12.5196,-40.3
Brazil,Maringá,-23.4095,-51.93
Brazil,Vilhena,-12.7166,-60.1166
Brazil,Belém,-1.45,-48.48
Brazil,Porto Velho,-8.75,-63.9
Brazil,Nova Viçosa,-17.88,-39.37
Brazil,Montes Claros,-16.72,-43.86
Brazil,Cáceres,-16.05,-57.51
Brazil,Cruzeiro do Sul,-7.63,-72.67
Brazil,Rio Branco,-9.9666,-67.8
Brazil,Leopoldina,-21.53,-42.64
Brazil,Nova Lima,-19.98,-43.85
Brazil,Rio Negro,-26.1,-49.79
Brazil,Canindé,-4.35,-39.31
Brazil,Araçuaí,-16.8596,-42.0699
Brazil,Americana,-22.7499,-47.33
Brazil,Sete Lagoas,-19.4496,-44.25
Brazil,Santo Ângelo,-28.3,-54.28
Brazil,Santana do Livramento,-30.88,-55.53
Brazil,Feira de Santana,-12.25,-38.97
Brazil,Pelotas,-31.75,-52.33
Brazil,Curvelo,-18.7596,-44.43
Brazil,Itu,-23.26,-47.3
Brazil,Itanhaém,-24.18,-46.8
Brazil,São Paulo,-23.5587,-46.625
Brazil,Salgueiro,-8.0596,-39.13
Brazil,Penedo,-10.2696,-36.58
Brazil,Anápolis,-16.3196,-48.96
Brazil,Maracaju,-21.61,-55.18
Brazil,Baturité,-4.3296,-38.88
Brazil,Guajará-Mirim,-10.8,-65.3499
Brazil,Paragominas,-2.9596,-47.49
Brazil,Castro,-24.79,-50.01
Brazil,Macapá,0.033,-51.05
Brazil,Manaus,-3.1,-60
Brazil,Brumado,-14.21,-41.67
Brazil,Muriaé,-21.13,-42.39
Brazil,Gurupi,-11.7196,-49.06
Brazil,Araranguá,-28.94,-49.5
Brazil,Vitória da Conquista,-14.85,-40.84
Brazil,Ji-Paraná,-10.8333,-61.967
Brazil,Brusque,-27.13,-48.93
Brazil,Marília,-22.21,-49.95
Brazil,Presidente Prudente,-22.12,-51.39
Brazil,Assis,-22.6596,-50.42
Brazil,Alvorada,-12.47,-49.082
Brazil,Itajaí,-26.8996,-48.68
Brazil,Volta Redonda,-22.5196,-44.095
Brazil,Fernandópolis,-20.2696,-50.26
Brazil,São Carlos,-22.02,-47.89
Brazil,Cametá,-2.2396,-49.51
Brazil,Bauru,-22.33,-49.08
Brazil,Jardim,-21.4799,-56.15
Brazil,Piripiri,-4.2696,-41.79
Brazil,Guanhães,-18.78,-42.95
Brazil,Rio de Janeiro,-22.925,-43.225
Brazil,Camocim,-2.9,-40.85
Brazil,Criciúma,-28.68,-49.39
Brazil,Catalão,-18.18,-47.95
Brazil,Aracati,-4.56,-37.77
Brazil,Guaratinguetá,-22.82,-45.19
Brazil,Irecê,-11.3,-41.87
Brazil,Timon,-5.115,-42.845
Brazil,Goiânia,-16.72,-49.3
Brazil,Quaraí,-30.38,-56.4599
Brazil,Mossoró,-5.19,-37.34
Brazil,Manicoré,-5.8122,-61.2975
Brazil,Inhumas,-16.36,-49.5
Brazil,Juiz de Fora,-21.77,-43.375
Brazil,Caçador,-26.77,-51.02
Brazil,Balsas,-7.52,-46.05
Brazil,Tefé,-3.36,-64.7
Brazil,Piraçununga,-21.99,-47.43
Brazil,Andradina,-20.9096,-51.3799
Brazil,Janaúba,-15.7996,-43.31
Brazil,Barra do Garças,-15.8796,-52.26
Brazil,Jacareacanga,-6.2666,-57.65
Brazil,Fonte Boa,-2.5138,-66.0916
Brazil,Vacaria,-28.4996,-50.94
Brazil,Brasília,-15.7833,-47.9161
Brazil,Serrinha,-11.6496,-39.01
Brazil,Alta Floresta,-9.9,-55.91
Brazil,Crato,-7.4639,-63.04
Brazil,Crato,-7.2296,-39.42
Brazil,Batatais,-20.89,-47.59
Brazil,Bacabal,-4.23,-44.8
Brazil,Porto Alegre,-30.05,-51.2
Brazil,Bragança,-1.05,-46.77
Brazil,São João del Rei,-21.13,-44.25
Brazil,Arcoverde,-8.42,-37.07
Brazil,Aquidauana,-20.4696,-55.79
Brazil,Picos,-7.08,-41.44
Brazil,Grajaú,-5.81,-46.15
Brazil,Pôrto União,-26.2396,-51.08
Brazil,Goiana,-7.5596,-35
Brazil,Salinópolis,-0.6095,-47.34
Brazil,Timbaúba,-7.4996,-35.32
Brazil,Ariquemes,-9.9396,-63.08
Brazil,Canoinhas,-26.18,-50.4
Brazil,Três Lagoas,-20.79,-51.72
Brazil,Formiga,-20.46,-45.43
Brazil,Recife,-8.0756,-34.9156
Brazil,Crateús,-5.1656,-40.666
Brazil,Itapipoca,-3.4995,-39.58
Brazil,Cascavel,-24.9596,-53.46
Brazil,Caicó,-6.4596,-37.1
Brazil,Tucuruí,-3.68,-49.72
Brazil,São João da Boa Vista,-21.98,-46.79
Brazil,São José de Ribamar,-2.55,-44.07
Brazil,Açu,-5.5796,-36.9101
Brazil,Guaíra,-24.09,-54.27
Brazil,Governador Valadares,-18.87,-41.97
Brazil,Uberaba,-19.78,-47.95
Brazil,Jataí,-17.8796,-51.75
Brazil,São Gabriel,-30.32,-54.32
Brazil,Petrolina,-9.38,-40.51
Brazil,Cabo Frio,-22.89,-42.04
Brazil,Caruaru,-8.28,-35.98
Brazil,Salvador,-12.97,-38.48
Brazil,Caxias do Sul,-29.18,-51.17
Brazil,Várzea Grande,-15.65,-56.14
Brazil,Jaguaquara,-13.53,-39.97
Brazil,Curitiba,-25.42,-49.32
Brazil,Registro,-24.49,-47.84
Brazil,Itaúna,-20.06,-44.57
Brazil,Santa Maria,-29.6833,-53.8
Brazil,Estância,-11.2696,-37.45
Brazil,Campos,-21.75,-41.32
Brazil,Camaquã,-30.8396,-51.81
Brazil,Palmas,-26.48,-52
Brazil,Cachoeira do Sul,-30.03,-52.91
Brazil,Fortaleza,-3.75,-38.58
Brazil,Coari,-4.08,-63.13
Brazil,Canela,-29.36,-50.81
Brazil,Ijuí,-28.3895,-53.9199
Brazil,Itacoatiara,-3.14,-58.44
Brazil,Ilhéus,-14.78,-39.05
Brazil,Santarém,-2.4333,-54.7
Brazil,Caràzinho,-28.29,-52.8
Brazil,Formosa,-15.5395,-47.34
Brazil,São Borja,-28.6596,-56.01
Brazil,Avaré,-23.11,-48.93
Brazil,Senhor do Bonfim,-10.4496,-40.19
Brazil,Campina Grande,-7.23,-35.88
Brazil,Lavras,-21.2496,-45.01
Brazil,Colíder,-10.8173,-55.4506
Brazil,Rio Verde,-17.8196,-50.93
Brazil,Jabuticabal,-21.25,-48.33
Brazil,São José do Rio Prêto,-20.7996,-49.39
Brazil,Itapetinga,-15.25,-40.25
Brazil,Caratinga,-19.79,-42.14
Brazil,Aripuanã,-9.17,-60.64
Brazil,Pirapora,-17.33,-44.93
Brazil,Viana,-3.2096,-45
Brazil,Juazeiro do Norte,-7.21,-39.32
Brazil,Santa Cruz Cabrália,-16.28,-39.03
Brazil,Ponte Nova,-20.4096,-42.9
Brazil,Guaxupé,-21.29,-46.71
Brazil,Goianésia,-15.3096,-49.13
Brazil,Capanema,-1.19,-47.18
Brazil,Caracaraí,1.8162,-61.1277
Brazil,Itamaraju,-17.0396,-39.5299
Brazil,Campo Belo,-20.8896,-45.28
Brazil,Blumenau,-26.92,-49.09
Brazil,Santa Vitória do Palmar,-33.52,-53.37
Brazil,Ponta Grossa,-25.09,-50.16
Brazil,Floriano,-6.7696,-43.03
Brazil,Campinas,-22.9,-47.1
Brazil,Imbituba,-28.2296,-48.66
Brazil,Guanambi,-14.2296,-42.79
Brazil,Telêmaco Borba,-24.33,-50.62
Brazil,Abaetetuba,-1.7245,-48.8849
Brazil,Paracatu,-17.1996,-46.87
Brazil,Jaguarão,-32.56,-53.37
Brazil,Pontes e Lacerda,-15.2196,-59.35
Brazil,Tauá,-5.9995,-40.31
Brazil,Petrópolis,-22.5095,-43.2
Brazil,Irati,-25.47,-50.66
Brazil,Itumbiara,-18.3996,-49.21
Brazil,Barcelos,-0.975,-62.9239
Brazil,Altamira,-3.1996,-52.21
Brazil,Palmas,-10.2377,-48.2878
Brazil,Boa Vista,2.8161,-60.666
Brazil,Taubaté,-23.0195,-45.56
Brazil,Acaraú,-2.8896,-40.12
Brazil,Icó,-6.4,-38.85
Brazil,Manacapuru,-3.2896,-60.62
Brazil,Quixadá,-4.97,-39.02
Brazil,Ipatinga,-19.4796,-42.52
Brazil,Iguatu,-6.36,-39.3
Brazil,Belo Horizonte,-19.915,-43.915
Brazil,Santa Rosa,-27.8695,-54.46
Brazil,Limeira,-22.5495,-47.4
Brazil,Piracicaba,-22.71,-47.64
Brazil,Barra do Corda,-5.5096,-45.26
Brazil,Araguaína,-7.19,-48.21
Brazil,São Mateus,-18.7296,-39.86
Brazil,Araguari,-18.64,-48.2
Brazil,Parintins,-2.61,-56.74
Brazil,Rio Largo,-9.48,-35.84
Brazil,Barreiras,-12.14,-45
Brazil,Almenara,-16.17,-40.7
Brazil,Joinvile,-26.32,-48.8399
Brazil,Jaraguá do Sul,-26.48,-49.1
Brazil,Santo André,-23.6528,-46.5278
Brazil,São José dos Pinhais,-25.57,-49.18
Brazil,Sobral,-3.69,-40.35
Brazil,Ubaitaba,-14.3,-39.33
Brazil,São Gabriel da Cachoeira,-0.1332,-67.0833
Brazil,Linhares,-19.39,-40.05
Brazil,Aracaju,-10.9,-37.12
Brazil,Iporá,-16.45,-51.13
Brazil,Santa Cruz,-6.22,-36.03
Brazil,Óbidos,-1.91,-55.52
Brazil,Niquelândia,-14.4696,-48.47
Brazil,Jaboatão,-8.11,-35.02
Brazil,Conceição do Araguaia,-8.25,-49.29
Brazil,Miracema,-21.41,-42.2
Brazil,Ipu,-4.3196,-40.7201
Brazil,Bagé,-31.32,-54.1
Brazil,Natal,-6.9838,-60.2699
Brazil,Canavieiras,-15.64,-38.96
Brazil,Parnaíba,-2.91,-41.77
Brazil,Rondonópolis,-16.4695,-54.64
Brazil,Novo Horizonte,-21.4596,-49.22
Brazil,Tucano,-10.9696,-38.79
Brazil,Barretos,-20.55,-48.58
Brazil,Morrinhos,-17.73,-49.11
Brazil,Araçatuba,-21.21,-50.45
Brazil,Coroatá,-4.1296,-44.15
Brazil,Tonantins,-2.8727,-67.8019
Brazil,Barra Mansa,-22.56,-44.17
Brazil,Bragança Paulista,-22.95,-46.55
Brazil,Botucatu,-22.8796,-48.45
Brazil,Florianópolis,-27.58,-48.52
Brazil,Capitão Poço,-1.7496,-47.09
Brazil,Canoas,-29.92,-51.18
Brazil,Marabá,-5.35,-49.116
Brazil,Carpina,-7.84,-35.26
Brazil,Maués,-3.3896,-57.72
Brazil,Lajes,-27.8096,-50.31
Brazil,Paranaíba,-19.6796,-51.2
Brazil,Santa Cruz do Sul,-29.71,-52.44
Brazil,Bocaiúva,-17.1096,-43.81
Brazil,Dourados,-22.23,-54.81
Brazil,São Luís Gonzaga,-28.41,-54.96
Brazil,Campo Maior,-4.82,-42.18
Brazil,Chapecó,-27.1,-52.64
Brazil,Barra do Bugres,-15.0696,-57.19
Brazil,Presidente Dutra,-5.25,-44.52
Brazil,Nova Friburgo,-22.26,-42.54
Brazil,Alenquer,-1.9396,-54.79
Brazil,Sena Madureira,-9.07,-68.67
Brazil,Eirunepé,-6.66,-69.8738
Brazil,Abunã,-9.6954,-65.3597
Brazil,Príncipe da Beira,-12.4167,-64.4166
Brazil,Poços de Caldas,-21.78,-46.57
Brazil,Barras,-4.25,-42.3
Brazil,Santo Agostinho,-8.29,-35.03
Brazil,Jequié,-13.85,-40.08
Brazil,Portel,-1.95,-50.82
Brazil,Olinda,-8,-34.85
Brazil,Itupiranga,-5.12,-49.3
Brazil,Catanduva,-21.14,-48.98
Brazil,Paracuru,-3.3995,-39.04
Brazil,Iguaçu,-22.74,-43.47
Brazil,Macaé,-22.38,-41.79
Brazil,Garanhuns,-8.89,-36.5
Brazil,Castanhal,-1.2896,-47.93
Brazil,Paranaguá,-25.5279,-48.5345
Brazil,Natal,-5.78,-35.24
Brazil,Novo Hamburgo,-29.7096,-51.14
Brazil,Conselheiro Lafaiete,-20.67,-43.79
Brazil,Viseu,-1.1965,-46.14
Brazil,Teresina,-5.095,-42.78
Brazil,Ceres,-15.3033,-49.6052
Brazil,Caxias,-4.833,-43.35
Brazil,Pindamonhangaba,-22.92,-45.47
Brazil,Itaberaí,-16.02,-49.81
Brazil,Apodi,-5.65,-37.8
Brazil,Garça,-22.22,-49.66
Brazil,Granja,-3.1195,-40.84
Brazil,Pimenta Bueno,-11.64,-61.21
Brazil,Lapa,-25.76,-49.73
Brazil,São José dos Campos,-23.2,-45.8799
Brazil,São Lourenço do Sul,-31.37,-51.98
Brazil,Vila Bela da Santíssima Trindade,-15,-59.95
Brazil,Colinas,-6.0395,-44.24
Brazil,Apucarana,-23.55,-51.47
Brazil,Pires do Rio,-17.2995,-48.28
Brazil,Guarapuava,-25.38,-51.48
Brazil,São Luís,-2.516,-44.266
Brazil,Rolim de Moura,-11.7302,-61.7806
Brazil,Vila Velha,-20.3676,-40.318
Brazil,Vila Velha,3.2167,-51.2167
Brazil,Iguape,-24.72,-47.5699
Brazil,Campo Grande,-20.45,-54.6166
Brazil,Itambé,-15.2396,-40.63
Brazil,João Pessoa,-7.1011,-34.8761
Brazil,Maceió,-9.62,-35.73
Brazil,Santa Maria da Vitória,-13.39,-44.21
Brazil,Amapá,2.05,-50.8
Brazil,Nova Cruz,-6.4696,-35.44
Brazil,Cuiabá,-15.5696,-56.085
Brazil,Teófilo Otoni,-17.87,-41.5
Brazil,Iturama,-19.73,-50.2
Brazil,Xinguara,-7.1006,-49.948
Brazil,Arapongas,-23.41,-51.43
Brazil,Patos,-7.0196,-37.29
Brazil,Campo Mourão,-24.0496,-52.42
Brazil,Passos,-20.71,-46.61
Brazil,Bom Jesus da Lapa,-13.2495,-43.44
Brazil,Tatuí,-23.35,-47.86
Brazil,Jundiaí,-23.2,-46.88
Brazil,Pinheiro,-2.5196,-45.09
Brazil,Porto Nacional,-10.7,-48.4199
Brazil,Cristalina,-16.77,-47.61
Brazil,Mineiros,-17.5695,-52.56
Brazil,Juazeiro,-9.42,-40.5
Brazil,Laguna,-28.48,-48.78
Brazil,Remanso,-9.5996,-42.11
Brazil,Alagoinhas,-12.14,-38.43
Brazil,Nanuque,-17.84,-40.35
Brazil,Jaú,-22.2896,-48.57
Brazil,Diamantina,-18.24,-43.61
Brazil,Rio Claro,-22.41,-47.56
Brazil,Russas,-4.94,-37.98
Brazil,Ourinhos,-22.97,-49.87
Brazil,Ubá,-21.1196,-42.95
Brazil,Ribeirão Prêto,-21.17,-47.83
Brazil,Itaituba,-4.2586,-55.925
Brazil,Passo Fundo,-28.25,-52.42
Brazil,Rosário do Sul,-30.25,-54.92
Brazil,Niterói,-22.9,-43.1
Brazil,Bento Gonçalves,-29.1695,-51.52
Brazil,Arapiraca,-9.75,-36.67
Brazil,Rosário,-2.94,-44.26
Brazil,Rio Grande,-32.0495,-52.12
Brazil,Cachoeiro de Itapemirim,-20.85,-41.13
Brazil,Joaçaba,-27.17,-51.5
Brazil,São Francisco do Sul,-26.2396,-48.6
Brazil,Oriximiná,-1.7596,-55.87
Brazil,Frutal,-20.03,-48.94
Brazil,Novo Airão,-2.6208,-60.9438
Brazil,Vitória,-20.324,-40.366
Brazil,Januária,-15.48,-44.37
Brazil,Palmeira dos Índios,-9.4166,-36.6166
Brazil,Tocantinópolis,-6.3196,-47.42
Brazil,Itapecuru Mirim,-3.4,-44.36
Brazil,Erechim,-27.63,-52.27
Brazil,Osório,-29.88,-50.27
Brazil,Pedreiras,-4.5696,-44.67
Brazil,Itapetininga,-23.59,-48.04
Brazil,Divinópolis,-20.1495,-44.9
Brazil,Santos,-23.9537,-46.3329
Brazil,Ponta Porã,-22.53,-55.73
Brazil,Tubarão,-28.48,-49.02
Brazil,Pôrto Seguro,-16.4296,-39.08
Brazil,Trindade,-16.65,-49.5
Brazil,Jacarèzinho,-23.1599,-49.98
Brazil,Barbacena,-21.22,-43.77
Brazil,Sinop,-11.85,-55.46
Brazil,Londrina,-23.3,-51.18
Brazil,Xique-Xique,-10.82,-42.73
Brazil,Uruguaiana,-29.7696,-57.09
Brazil,Pouso Alegre,-22.22,-45.94
Brazil,Chapadinha,-3.7395,-43.36
Brazil,Barreiros,-8.8296,-35.2
Brazil,Sorocaba,-23.49,-47.47
Brazil,Uberlândia,-18.9,-48.28
Brazil,Corumbá,-19.016,-57.65
Brunei Darussalam,Bangar,4.7086,115.0717
Brunei Darussalam,Tutong,4.8028,114.6492
Brunei Darussalam,Kuala Belait,4.5856,114.2019
Brunei Darussalam,Bandar Seri Begawan,4.8833,114.9333
Bulgaria,Yambol,42.4833,26.5
Bulgaria,Sliven,42.6794,26.33
Bulgaria,Targovishte,43.2592,26.5892
Bulgaria,Kyustendil,42.2843,22.6911
Bulgaria,Razgrad,43.534,26.536
Bulgaria,Lovech,43.138,24.719
Bulgaria,Dobrich,43.5851,27.84
Bulgaria,Ruse,43.8537,25.9733
Bulgaria,Plovdiv,42.154,24.754
Bulgaria,Varna,43.2156,27.8953
Bulgaria,Silistra,44.1167,27.2667
Bulgaria,Pazardzhik,42.2,24.3333
Bulgaria,Kardzhali,41.65,25.3667
Bulgaria,Pernik,42.61,23.0227
Bulgaria,Vidin,43.99,22.8725
Bulgaria,Vratsa,43.21,23.5625
Bulgaria,Blagoevgrad,42.0167,23.1
Bulgaria,Montana,43.414,23.237
Bulgaria,Stara Zagora,42.4231,25.6227
Bulgaria,Shumen,43.27,26.9294
Bulgaria,Gabrovo,42.8747,25.3342
Bulgaria,Smolyan,41.5853,24.6919
Bulgaria,Haskovo,41.9438,25.5633
Bulgaria,Pleven,43.4238,24.6134
Bulgaria,Sofia,42.6833,23.3167
Bulgaria,Veliko Tarnovo,43.0862,25.6555
Bulgaria,Burgas,42.5146,27.4746
Burkina Faso,Nouna,12.729,-3.86
Burkina Faso,Boulsa,12.657,-0.569
Burkina Faso,Tougan,13.069,-3.07
Burkina Faso,Kombissiri,12.064,-1.334
Burkina Faso,Bogandé,12.969,-0.138
Burkina Faso,Djibo,14.099,-1.627
Burkina Faso,Bobo-Dioulasso,11.18,-4.29
Burkina Faso,Orodara,10.974,-4.908
Burkina Faso,Réo,12.3335,-2.4669
Burkina Faso,Kaya,13.0904,-1.09
Burkina Faso,Yako,12.954,-2.263
Burkina Faso,Gaoua,10.325,-3.174
Burkina Faso,Ouagadougou,12.3703,-1.5247
Burkina Faso,Gaoua,10.2992,-3.2508
Burkina Faso,Dori,14.034,-0.028
Burkina Faso,Koupéla,12.177,-0.356
Burkina Faso,Pô,11.169,-1.135
Burkina Faso,Sebba,13.4364,0.5304
Burkina Faso,Koudougou,12.2505,-2.37
Burkina Faso,Gorom-Gorom,14.45,-0.2333
Burkina Faso,Diébougou,10.952,-3.248
Burkina Faso,Zorgo,12.243,-0.611
Burkina Faso,Tenkodogo,11.7804,-0.3697
Burkina Faso,Banfora,10.6304,-4.76
Burkina Faso,Manga,11.662,-1.065
Burkina Faso,Ouahigouya,13.5704,-2.42
Burkina Faso,Sapouy,11.5544,-1.7736
Burkina Faso,Ziniaré,12.577,-1.293
Burkina Faso,Fada Ngourma,12.055,0.361
Burkina Faso,Léo,11.094,-2.098
Burkina Faso,Diapaga,12.077,1.796
Burkina Faso,Dédougou,12.455,-3.464
Burkina Faso,Salanso,12.1833,-4.0833
Burma,Shwebo,22.5783,95.6929
Burma,Dawei,14.098,98.195
Burma,Taunggyi,20.782,97.038
Burma,Pyay,18.8165,95.2114
Burma,Myeik,12.4541,98.6115
Burma,Namtu,23.0837,97.4
Burma,Sittwe,20.14,92.88
Burma,Taungoo,18.9483,96.4179
Burma,Allanmyo,19.3783,95.2279
Burma,Myingyan,21.4618,95.3914
Burma,Monywa,22.105,95.15
Burma,Labutta,16.1619,94.7014
Burma,Rangoon,16.7834,96.1667
Burma,Hakha,22.65,93.6167
Burma,Thongwa,16.7547,96.5193
Burma,Loikaw,19.665,97.206
Burma,Letpandan,17.7819,95.7415
Burma,Yenangyaung,20.4615,94.881
Burma,Pakokku,21.332,95.0866
Burma,Magway,20.1445,94.9196
Burma,Myitkyina,25.3596,97.3928
Burma,Bago,17.32,96.515
Burma,Chauk,20.9085,94.823
Burma,Ye,15.2533,97.8679
Burma,Nay Pyi Taw,19.7666,96.1186
Burma,Mawlamyine,16.5004,97.67
Burma,Mudon,16.2618,97.7215
Burma,Hpa-An,16.85,97.6167
Burma,Kyaukpyu,19.429,93.5494
Burma,Pyu,18.4779,96.4379
Burma,Sagaing,21.88,95.962
Burma,Hinthada,17.6483,95.4679
Burma,Pathein,16.7704,94.75
Burma,Pyapon,16.2933,95.6829
Burma,Nyaungdon,17.0433,95.6429
Burma,Mandalay,21.97,96.085
Burma,Wakema,16.6133,95.1829
Burundi,Rumonge,-3.9736,29.4386
Burundi,Rutana,-3.931,29.993
Burundi,Cibitoke,-2.8869,29.1248
Burundi,Kayanza,-2.9,29.5667
Burundi,Makamba,-4.1333,29.8
Burundi,Muyinga,-2.8523,30.3173
Burundi,Bubanza,-3.0833,29.3667
Burundi,Gitega,-3.4271,29.9246
Burundi,Kirundo,-2.5847,30.0972
Burundi,Muramvya,-3.261,29.612
Burundi,Ruyigi,-3.481,30.244
Burundi,Cankuzo,-3.1667,30.5167
Burundi,Bururi,-3.9507,29.6166
Burundi,Isale,-3.3489,29.4839
Burundi,Karuzi,-3.1,30.163
Burundi,Bujumbura,-3.3761,29.36
Burundi,Mwaro,-3.5113,29.7051
Burundi,Gitega,-3.426,29.8436
Burundi,Ngozi,-2.912,29.825
Cabo Verde,Pedra Badejo,15.1375,-23.5308
Cabo Verde,Ribeira Brava,16.6158,-24.2983
Cabo Verde,Assomada,15.1,-23.6833
Cabo Verde,Cova Figueira,14.8833,-24.3
Cabo Verde,Pombas,17.1503,-25.0201
Cabo Verde,Picos,15.0833,-23.65
Cabo Verde,Calheta de São Miguel,15.1833,-23.6
Cabo Verde,Espargos,16.7578,-22.9417
Cabo Verde,São Filipe,14.9,-24.5167
Cabo Verde,Ribeira Grande,17.1825,-25.065
Cabo Verde,Cidade Velha,14.9167,-23.6167
Cabo Verde,São Domingos,15.0167,-23.5667
Cabo Verde,Praia,14.9167,-23.5167
Cabo Verde,Ponta do Sol,17.2014,-25.0917
Cabo Verde,Porto Novo,17.0254,-25.0666
Cabo Verde,Tarrafal,15.2833,-23.7667
Cabo Verde,Sal Rei,16.1761,-22.9172
Cabo Verde,João Teves,15.0669,-23.5892
Cabo Verde,Tarrafal,16.5658,-24.3558
Cabo Verde,Igreja,15.0339,-24.325
Cabo Verde,Porto Inglês,15.1378,-23.2111
Cabo Verde,Mindelo,16.8838,-25
Cabo Verde,Nova Sintra,14.8714,-24.6956
Cambodia,Sihanoukville,10.6359,103.5017
Cambodia,Banlung,13.7394,106.9873
Cambodia,Kampong Thum,12.712,104.889
Cambodia,Samraong,14.1817,103.5176
Cambodia,Lumphat,13.507,106.981
Cambodia,Takeo,10.9838,104.7833
Cambodia,Suong,11.9118,105.6582
Cambodia,Kampong Thom,12.7111,104.8887
Cambodia,Ta Khmau,11.4833,104.95
Cambodia,Sen Monorom,12.45,107.2
Cambodia,Pursat,12.5337,103.9167
Cambodia,Kampong Cham,12.0004,105.45
Cambodia,Stung Treng,13.523,105.974
Cambodia,Koh Kong,11.6175,102.9849
Cambodia,Battambang,13.1,103.2
Cambodia,Kampong Speu,11.452,104.519
Cambodia,Phnom Penh,11.55,104.9166
Cambodia,Tbeng Meanchey,13.8167,104.9667
Cambodia,Svay Rieng,11.08,105.801
Cambodia,Sisophon,13.5838,102.9833
Cambodia,Kampong Chhnang,12.2505,104.6666
Cambodia,Kampot,10.6171,104.1833
Cambodia,Siem Reap,13.3666,103.85
Cambodia,Kratie,12.469,106.024
Cambodia,Pailin,12.8489,102.6093
Cambodia,Krong Kep,10.4829,104.3167
Cambodia,Prey Veng,11.484,105.324
Cameroon,Nkongsamba,4.9604,9.94
Cameroon,Ngaoundéré,7.3204,13.58
Cameroon,Aiyomojok,5.7504,8.9833
Cameroon,Maroua,10.5956,14.3247
Cameroon,Garoua,9.3,13.39
Cameroon,Kribi,2.9404,9.91
Cameroon,Bertoua,4.5804,13.68
Cameroon,Bafang,5.1704,10.18
Cameroon,Bamenda,5.96,10.15
Cameroon,Foumban,5.7304,10.9
Cameroon,Kumbo,6.2204,10.68
Cameroon,Bafia,4.7504,11.23
Cameroon,Limbe,4.0304,9.19
Cameroon,Ébolowa,2.9,11.15
Cameroon,Wum,6.4004,10.07
Cameroon,Guider,9.9304,13.94
Cameroon,Yaoundé,3.8667,11.5167
Cameroon,Mbé,7.8504,13.6
Cameroon,Douala,4.0604,9.71
Cameroon,Eséka,3.6504,10.7666
Cameroon,Mbalmayo,3.5204,11.5
Cameroon,Buea,4.155,9.231
Cameroon,Meïganga,6.5205,14.29
Cameroon,Edéa,3.8005,10.12
Cameroon,Kontcha,7.967,12.2333
Cameroon,Bafoussam,5.4904,10.4099
Cameroon,Bélabo,4.9337,13.3
Cameroon,Kumba,4.6404,9.44
Cameroon,Abong Mbang,3.9837,13.1833
Cameroon,Batouri,4.4337,14.3666
Cameroon,Tibati,6.467,12.6333
Canada,Weyburn,49.6666,-103.85
Canada,Whitehorse,60.7167,-135.05
Canada,Belleville,44.1667,-77.3833
Canada,Charlottetown,46.2493,-63.1313
Canada,Meadow Lake,54.1301,-108.4347
Canada,Rivière-du-Loup,47.8333,-69.5333
Canada,Prince George,53.9167,-122.7667
Canada,Nanaimo,49.146,-123.9343
Canada,Trois-Rivières,46.35,-72.5499
Canada,Barrie,44.3838,-79.7
Canada,Iqaluit,63.7505,-68.5002
Canada,Timmins,48.4666,-81.3333
Canada,Shawinigan,46.5504,-72.7333
Canada,Rimouski,48.4337,-68.5167
Canada,Prince Albert,53.2,-105.75
Canada,Kamloops,50.6667,-120.3333
Canada,Saskatoon,52.17,-106.67
Canada,Sarnia,42.9666,-82.4
Canada,Saint-Jérôme,45.7666,-74
Canada,Yellowknife,62.442,-114.397
Canada,Moncton,46.0833,-64.7667
Canada,Lethbridge,49.7005,-112.8333
Canada,Red Deer,52.2666,-113.8
Canada,Sherbrooke,45.4,-71.9
Canada,Victoriaville,46.0504,-71.9667
Canada,Owen Sound,44.5666,-80.85
Canada,Fort McMurray,56.7333,-111.3833
Canada,Victoria,48.4333,-123.35
Canada,Medicine Hat,50.0333,-110.6833
Canada,Kelowna,49.9,-119.4833
Canada,Cornwall,45.0171,-74.7333
Canada,Sudbury,46.5,-80.9666
Canada,North Bay,46.3,-79.45
Canada,Moose Jaw,50.4,-105.55
Canada,Orangeville,43.9171,-80.0833
Canada,Joliette,46.0333,-73.4333
Canada,Courtenay,49.6833,-125
Canada,Brockville,44.5893,-75.6953
Canada,Campbell River,50.0171,-125.25
Canada,Chicoutimi,48.4333,-71.0667
Canada,Fort Saint John,56.25,-120.8333
Canada,Saint-Georges,46.1171,-70.6667
Canada,Chilliwack,49.1666,-121.95
Canada,Brandon,49.8333,-99.95
Canada,Thunder Bay,48.4462,-89.275
Canada,Saint John’s,47.585,-52.681
Canada,Kingston,44.2337,-76.4833
Canada,Fredericton,45.95,-66.6333
Canada,Abbotsford,49.0504,-122.3
Canada,Peterborough,44.3,-78.3333
Canada,Regina,50.45,-104.617
Canada,Drummondville,45.8833,-72.4834
Canada,Rouyn-Noranda,48.25,-79.0332
Canada,Wetaskiwin,52.9666,-113.3833
Canada,Sydney,46.0661,-60.18
Canada,Orillia,44.6,-79.4167
Canada,Saint John,45.267,-66.0767
Canada,Penticton,49.5004,-119.5833
Canada,Sept-Îles,50.3161,-66.36
Canada,Grande Prairie,55.1666,-118.8
Canada,Ennadai,61.1333,-100.8833
Canada,Windsor,44.9806,-64.1291
Canada,Baie-du-Poste,50.4171,-73.8666
Canada,Gillam,56.35,-94.7
Canada,Gimli,50.6333,-97
Canada,Thompson,55.7499,-97.8666
Canada,Quesnel,52.9837,-122.4833
Canada,Chesterfield Inlet,63.3383,-90.7001
Canada,Kuujjuaq,58.1,-68.4
Canada,Athabasca,54.717,-113.2666
Canada,Vancouver,49.2734,-123.1216
Canada,Amherst,45.8166,-64.2166
Canada,Stephenville,48.5504,-58.5666
Canada,Oxford House,54.9504,-95.2666
Canada,Nain,56.5474,-61.686
Canada,Trepassey,46.737,-53.3633
Canada,Gjoa Haven,68.6333,-95.9167
Canada,Pukatawagan,55.7333,-101.3166
Canada,Hopedale,55.45,-60.2167
Canada,Nelson House,55.8005,-98.85
Canada,Brooks,50.5671,-111.9
Canada,La Sarre,48.8,-79.2
Canada,Saint Anthony,51.3837,-55.6
Canada,Williams Lake,52.1166,-122.15
Canada,Nipigon,49.017,-88.25
Canada,Fort McPherson,67.4915,-134.895
Canada,Eastmain,52.2333,-78.5167
Canada,Edmundston,47.3794,-68.3333
Canada,Powell River,49.8837,-124.55
Canada,Antigonish,45.6269,-61.9982
Canada,Selkirk,50.15,-96.8833
Canada,Resolute,74.6833,-94.9
Canada,Ottawa,45.4167,-75.7
Canada,Bella Bella,52.1484,-128.1173
Canada,Cobalt,47.3837,-79.6833
Canada,Cranbrook,49.5167,-115.7667
Canada,Parry Sound,45.3337,-80.033
Canada,Port-Menier,49.8226,-64.348
Canada,Geraldton,49.7166,-86.9666
Canada,Radisson,53.7836,-77.6166
Canada,London,42.97,-81.25
Canada,Brochet,57.8832,-101.6666
Canada,Pangnirtung,66.1333,-65.75
Canada,Fort Simpson,61.85,-121.3333
Canada,Steinbach,49.5171,-96.6833
Canada,Dawson,64.0666,-139.4167
Canada,Paulatuk,69.3833,-123.9833
Canada,Dolbeau,48.8666,-72.2333
Canada,Kugluktuk,67.7987,-115.1254
Canada,Dease Lake,58.4503,-130.0333
Canada,Cat Lake,51.717,-91.8
Canada,Argentia,47.3004,-53.99
Canada,Norman Wells,65.2837,-126.85
Canada,Hamilton,43.25,-79.83
Canada,Baker Lake,64.317,-96.0167
Canada,Fort Good Hope,66.2666,-128.6333
Canada,Cartwright,53.7014,-57.0121
Canada,Arctic Bay,73.0333,-85.1666
Canada,Natashquan,50.1913,-61.8107
Canada,Fort Smith,60,-111.8833
Canada,Délįne,65.1833,-123.4167
Canada,Buchans,48.817,-56.8666
Canada,Sandspit,53.2404,-131.8333
Canada,Pembroke,45.8503,-77.1166
Canada,Camrose,53.0167,-112.8166
Canada,Hay River,60.85,-115.7
Canada,Repulse Bay,66.5295,-86.2829
Canada,Hall Beach,68.7675,-81.2361
Canada,Prince Rupert,54.3167,-130.33
Canada,Revelstoke,51.0005,-118.1833
Canada,Dryden,49.7833,-92.8333
Canada,Swift Current,50.2837,-107.7666
Canada,Mingan,50.3018,-64.0173
Canada,Yorkton,51.2171,-102.4665
Canada,Lake Louise,51.4337,-116.1833
Canada,Cape Dorset,64.3125,-76.5386
Canada,Kangirsuk,60.0248,-69.9991
Canada,Happy Valley,53.3,-60.3
Canada,Taloyoak,69.5333,-93.5333
Canada,Arviat,61.1086,-94.0586
Canada,Churchill,58.766,-94.166
Canada,Kimmirut,62.85,-69.8833
Canada,Kapuskasing,49.4167,-82.4333
Canada,Tuktoyaktuk,69.4548,-133.0492
Canada,Yarmouth,43.8308,-66.1126
Canada,Rankin Inlet,62.8167,-92.0953
Canada,Berens River,52.3666,-97.0333
Canada,Dauphin,51.15,-100.05
Canada,Shamattawa,55.8504,-92.0833
Canada,Banff,51.178,-115.5719
Canada,Baddeck,46.1,-60.754
Canada,Port Hardy,50.7171,-127.5
Canada,Forteau Bay,51.4504,-56.95
Canada,Coral Harbour,64.1538,-83.1766
Canada,Fort Resolution,61.1666,-113.683
Canada,Trout River,49.4837,-58.1166
Canada,Wawa,48.0004,-84.7833
Canada,Halifax,44.65,-63.6
Canada,La Scie,49.967,-55.583
Canada,Schefferville,54.8,-66.8167
Canada,Lynn Lake,56.85,-101.05
Canada,Holman,70.7334,-117.75
Canada,Watson Lake,60.1166,-128.8
Canada,Cambridge Bay,69.117,-105.0333
Canada,Cap-Chat,49.1,-66.6833
Canada,Thessalon,46.25,-83.55
Canada,Pond Inlet,72.685,-78.0001
Canada,Baie-Comeau,49.2227,-68.158
Canada,Cochrane,49.067,-81.0166
Canada,Channel-Port aux Basques,47.567,-59.15
Canada,Liverpool,44.04,-64.72
Canada,Łutselk’e,62.4001,-110.7333
Canada,Salluit,62.1826,-75.6595
Canada,Kindersley,51.467,-109.1333
Canada,Lansdowne House,52.2166,-87.8833
Canada,Rigolet,54.1766,-58.4473
Canada,Amos,48.5666,-78.1167
Canada,New Glasgow,45.5833,-62.6333
Canada,Toronto,43.7,-79.42
Canada,Fort Severn,55.9833,-87.65
Canada,Vegreville,53.5,-112.05
Canada,Lac La Biche,54.7719,-111.9647
Canada,Oshawa,43.88,-78.85
Canada,Melville,50.9333,-102.8
Canada,Hearst,49.7005,-83.6666
Canada,Biggar,52.0504,-107.9833
Canada,Wiarton,44.7337,-81.1333
Canada,Marathon,48.7504,-86.3667
Canada,Val-d’Or,48.1166,-77.7666
Canada,Corner Brook,48.95,-57.9333
Canada,Burns Lake,54.217,-125.7666
Canada,Dawson Creek,55.767,-120.2333
Canada,Windsor,42.3333,-83.0333
Canada,Big Beaverhouse,52.95,-89.8833
Canada,Island Lake,53.9666,-94.7666
Canada,Digby,44.6226,-65.7605
Canada,La Ronge,55.1,-105.3
Canada,Kenora,49.7667,-94.4666
Canada,Deer Lake,52.617,-94.0666
Canada,Atikokan,48.7504,-91.6166
Canada,Gander,48.95,-54.55
Canada,Grise Fiord,76.4417,-82.95
Canada,Shelburne,43.7656,-65.3194
Canada,Burwash Landing,61.3504,-139
Canada,Peace River,56.2333,-117.2833
Canada,Inuvik,68.35,-133.7
Canada,Saint-Augustin,51.2423,-58.647
Canada,Uranium City,59.5666,-108.6166
Canada,Creston,49.1,-116.5167
Canada,Lillooet,50.6837,-121.9333
Canada,Chapleau,47.8337,-83.4
Canada,Sioux Lookout,50.263,-91.9166
Canada,The Pas,53.8166,-101.2333
Canada,Hudson Bay,52.8504,-102.3833
Canada,Alert,82.4833,-62.25
Canada,Matagami,49.7504,-77.6333
Canada,Norway House,53.9666,-97.8333
Canada,Bathurst,47.6,-65.65
Canada,Attawapiskat,52.9166,-82.4333
Canada,Port Hope Simpson,52.5333,-56.3
Canada,Terrace,54.5,-128.5833
Canada,Gaspé,48.8373,-64.4934
Canada,North Battleford,52.7666,-108.2833
Canada,Winnipeg,49.883,-97.166
Canada,Tofino,49.1521,-125.9031
Canada,Red Lake,51.0337,-93.8333
Canada,New Liskeard,47.5,-79.6666
Canada,Deer Lake,49.1744,-57.4269
Canada,Jasper,52.8833,-118.0834
Canada,Smithers,54.7666,-127.1666
Canada,Québec,46.84,-71.2456
Canada,Montréal,45.5,-73.5833
Canada,Moosonee,51.2806,-80.658
Canada,Fort Chipewyan,58.7171,-111.15
Canada,Stettler,52.333,-112.6833
Canada,Hinton,53.4,-117.5834
Canada,Fort Nelson,58.8167,-122.533
Canada,Little Current,45.967,-81.9333
Canada,Upper Hay River,59.0333,-117.683
Canada,Inukjuak,58.47,-78.136
Canada,Kitchener,43.45,-80.5
Canada,Nelson,49.4837,-117.2833
Canada,Calgary,51.083,-114.08
Canada,Tsiigehtchic,67.4333,-133.75
Canada,Ivujivik,62.4166,-77.9
Canada,Flin Flon,54.7666,-101.8833
Canada,Edmonton,53.55,-113.5
Canada,Mont-Laurier,46.5504,-75.5
Canada,Igloolik,69.2565,-81.7936
Canada,Stony Rapids,59.2666,-105.8333
Cayman Islands,George Town,19.2804,-81.33
Central African Republic,Bozoum,6.317,16.3833
Central African Republic,Bambari,5.762,20.6672
Central African Republic,Berbérati,4.25,15.78
Central African Republic,Bossembele,5.267,17.65
Central African Republic,Mbaïki,3.8704,18
Central African Republic,Bossangoa,6.4837,17.45
Central African Republic,Nola,3.5337,16.0666
Central African Republic,Bimbo,4.329,18.5284
Central African Republic,Zemio,5.0337,25.1333
Central African Republic,Bouar,5.95,15.6
Central African Republic,Mobaye,4.32,21.18
Central African Republic,Ndélé,8.4091,20.653
Central African Republic,Bria,6.5333,21.9833
Central African Republic,Sibut,5.7338,19.0833
Central African Republic,Kaga Bandoro,6.9804,19.18
Central African Republic,Bangassou,4.7338,22.8166
Central African Republic,Bangui,4.3666,18.5583
Central African Republic,Ouadda,8.0671,22.4
Central African Republic,Carnot,4.9337,15.8666
Central African Republic,Yakossi,5.617,23.3167
Central African Republic,Birao,10.2837,22.7833
Central African Republic,Obo,5.4,26.5
Chad,Doba,8.6504,16.85
Chad,Faya,17.9167,19.1167
Chad,Am Timan,11.0333,20.2833
Chad,Laï,9.395,16.305
Chad,Ati,13.2171,18.3333
Chad,Bol,13.459,14.7147
Chad,Mongo,12.1837,18.7
Chad,Pala Oua,9.3504,14.9666
Chad,Bongor,10.2859,15.3872
Chad,Fada,17.1847,21.5902
Chad,Biltine,14.5333,20.9167
Chad,N’Djamena,12.1131,15.0491
Chad,Mao,14.1194,15.3133
Chad,Pala,9.3642,14.9046
Chad,Moussoro,13.6414,16.4894
Chad,Goz Beïda,12.2248,21.4103
Chad,Moundou,8.55,16.09
Chad,Massenya,11.4039,16.1705
Chad,Am Djarass,16.0659,22.8431
Chad,Zouar,20.4587,16.5278
Chad,Koumra,8.9126,17.5539
Chad,Abéché,13.84,20.83
Chad,Sarh,9.15,18.39
Chad,Bardaï,21.3549,17.0012
Chad,Kelo,9.3171,15.8
Chad,Oum Hadjer,13.3004,19.6833
Chad,Massakory,12.996,15.7293
Chile,Valdivia,-39.795,-73.245
Chile,Rancagua,-34.17,-70.74
Chile,Chuquicamata,-22.32,-68.93
Chile,Calbuco,-41.7522,-73.1416
Chile,Vallenar,-28.57,-70.76
Chile,Angol,-37.79,-72.71
Chile,Nueva Imperial,-38.74,-72.96
Chile,Carahue,-38.7095,-73.17
Chile,Taltal,-25.4,-70.47
Chile,Quirihue,-36.28,-72.53
Chile,Ovalle,-30.59,-71.2001
Chile,Tierra Amarilla,-27.48,-70.28
Chile,Chonchi,-42.61,-73.8099
Chile,Castro,-42.4808,-73.7623
Chile,San Bernardo,-33.6,-70.7
Chile,San Antonio,-33.5995,-71.61
Chile,Toconao,-23.1829,-68.0166
Chile,Balsadero Río Verde,-52.65,-71.4666
Chile,Los Lagos,-39.8495,-72.83
Chile,Chañaral,-29.03,-71.43
Chile,Vicuña,-30.0295,-70.74
Chile,Concepción,-36.83,-73.05
Chile,Talcahuano,-36.7167,-73.1167
Chile,Villa O’Higgins,-48.4679,-72.56
Chile,Quellón,-43.0996,-73.6
Chile,La Ligua,-32.46,-71.24
Chile,Diego de Almagro,-26.3696,-70.05
Chile,Copiapó,-27.36,-70.34
Chile,Lonquimay,-38.4333,-71.2333
Chile,Illapel,-31.6296,-71.17
Chile,Pozo Almonte,-20.2696,-69.8
Chile,Lagunas,-20.9829,-69.6833
Chile,Lebu,-37.6096,-73.65
Chile,Cuya,-19.1167,-70.1333
Chile,Santa Bárbara,-37.67,-72.02
Chile,Puerto Montt,-41.47,-72.93
Chile,Punta Arenas,-53.165,-70.94
Chile,Los Andes,-32.8296,-70.6
Chile,Antofagasta,-23.65,-70.4
Chile,Huasco,-28.4696,-71.22
Chile,Oficina María Elena,-22.35,-69.67
Chile,Cochrane,-47.2663,-72.5499
Chile,Santiago,-33.45,-70.667
Chile,Tocopilla,-22.09,-70.19
Chile,Victoria,-38.2395,-72.34
Chile,Toltén,-39.2166,-73.2123
Chile,Salamanca,-31.7796,-70.98
Chile,La Serena,-29.9,-71.25
Chile,Coquimbo,-29.9529,-71.3436
Chile,La Unión,-40.29,-73.09
Chile,Pichilemu,-34.38,-72
Chile,Caldera,-27.0696,-70.83
Chile,Lota,-37.0896,-73.16
Chile,Puerto Natales,-51.7183,-72.5117
Chile,San Fernando,-34.58,-70.99
Chile,Iquique,-20.25,-70.13
Chile,Curicó,-34.98,-71.24
Chile,San Felipe,-32.75,-70.72
Chile,Combarbalá,-31.18,-71
Chile,Coronel,-37.03,-73.16
Chile,Puerto Varas,-41.33,-72.99
Chile,Mejillones,-23.1,-70.45
Chile,Constitución,-35.3296,-72.42
Chile,Ancud,-41.87,-73.83
Chile,Cauquenes,-35.96,-72.32
Chile,Río Bueno,-40.34,-72.96
Chile,Puerto Aysén,-45.3999,-72.7
Chile,Loncoche,-39.37,-72.63
Chile,Collipulli,-37.96,-72.43
Chile,Arica,-18.5,-70.29
Chile,Chillán,-36.6,-72.106
Chile,Curanilahue,-37.48,-73.34
Chile,Coyhaique,-45.57,-72.07
Chile,Talca,-35.455,-71.67
Chile,Quillota,-32.88,-71.26
Chile,Los Ángeles,-37.46,-72.36
Chile,Calama,-22.45,-68.92
Chile,Valparaíso,-33.0478,-71.621
Chile,Villarrica,-39.28,-72.23
Chile,Linares,-35.84,-71.59
Chile,Viña del Mar,-33.03,-71.54
Chile,Temuco,-38.73,-72.58
Chile,Puerto Williams,-54.9333,-67.6167
Chile,Osorno,-40.57,-73.16
China,Yingkou,40.6703,122.28
China,Keshan,48.0263,125.866
China,Wusong,30.9504,117.78
China,Sanming,26.23,117.58
China,Changping,40.2248,116.1944
China,Simao,22.7807,100.9782
China,Langzhong,31.5759,105.9656
China,Shangzhi,45.2204,127.97
China,Macheng,31.18,115.03
China,Fu’an,27.0704,119.62
China,Huazhou,32.6804,112.08
China,Linkou,45.2819,130.2519
China,Jiayuguan,39.82,98.3
China,Tengyue,25.0333,98.4666
China,Taizhou,32.4904,119.9
China,Lanxi,46.2664,126.276
China,Shaoxing,30.0004,120.57
China,Shuangyashan,46.6704,131.35
China,Weihai,37.5,122.1
China,Xicheng,23.38,103.1501
China,Shiyan,32.57,110.78
China,Yinchuan,38.468,106.273
China,Anshun,26.2504,105.93
China,Hengshui,37.72,115.7
China,Korla,41.73,86.15
China,Xigazê,29.25,88.8833
China,Koktokay,47.0004,89.4666
China,Yuci,37.6804,112.73
China,Fuxin,42.0105,121.66
China,Pingliang,35.5304,106.6801
China,Yancheng,33.3856,120.1253
China,Lishui,28.4504,119.9
China,Yongzhou,26.2304,111.62
China,Jinchang,38.4957,102.1739
China,Linfen,36.0803,111.52
China,Danjiangkou,32.52,111.5
China,Jincheng,35.5004,112.83
China,Baoshan,25.12,99.15
China,Liaoyuan,42.9,125.13
China,Huanghua,38.3704,117.33
China,Xingtai,37.05,114.5
China,Langfang,39.5204,116.68
China,Zhaotong,27.3204,103.72
China,Laiwu,36.2004,117.66
China,Lingyuan,41.24,119.4011
China,Liaoyang,41.28,123.18
China,Yichun,47.6999,128.9
China,Baicheng,23.8997,106.6133
China,Dunhua,43.3505,128.22
China,Weinan,34.5004,109.5001
China,Fulin,29.35,102.7167
China,Bayan Hot,38.839,105.6686
China,Minzhu,43.7163,127.346
China,Boli,45.7564,130.5759
China,Jinzhong,26.3504,103.4167
China,Anqing,30.5,117.05
China,Baojishi,34.38,107.15
China,Fuyang,32.9004,115.82
China,Manzhouli,49.6,117.43
China,Jiangguanchi,34.0204,113.82
China,Chengde,40.9604,117.93
China,Wuzhou,23.48,111.32
China,Xinqing,48.2363,129.5059
China,Gannan,47.9204,123.51
China,Lianhe,47.1364,129.2859
China,Changling,44.27,123.99
China,Pingyi,35.5104,117.62
China,Hanzhong,33.13,107.03
China,Zunyi,27.7,106.92
China,Shuozhou,39.3004,112.42
China,Nanping,26.6304,118.17
China,Taihecun,45.8,130.85
China,Linxi,43.5171,118.0333
China,Xingyi,25.0904,104.89
China,Heyin,36.0451,101.4242
China,Shihezi,44.3,86.0299
China,Fuyang,30.0533,119.9519
China,Wuhu,31.3504,118.37
China,Tailai,46.3904,123.41
China,Xiaoganzhan,30.9204,113.9
China,Xinpu,34.6004,119.17
China,Pingdingshan,33.7304,113.3
China,Hedong,42.5348,129.0044
China,Yulinshi,38.2833,109.7333
China,Huinan,42.6229,126.2614
China,Xuanzhou,30.9525,118.7553
China,Jieshou,33.2504,115.35
China,Altay,47.8666,88.1166
China,Huangshi,30.22,115.1
China,Bengbu,32.95,117.33
China,Zalantun,48,122.72
China,Dali,25.7,100.18
China,Anda,46.4,125.32
China,Yibin,28.77,104.57
China,Nangandao,35.3204,113.87
China,Panshi,42.9426,126.0561
China,Linxia Chengguanzhen,35.6,103.2
China,Zhaoqing,23.0504,112.45
China,Xinyu,27.8,114.93
China,Huaibei,33.9504,116.75
China,Rizhao,35.4304,119.45
China,Jiangmen,22.5804,113.08
China,Yangzhou,32.4,119.43
China,Shaoguan,24.8,113.58
China,Dengtalu,36.08,114.35
China,Nangong,37.3704,115.37
China,Liuhe,42.2789,125.7173
China,Nong’an,44.4304,125.1701
China,Dandong,40.1436,124.3936
China,Cangzhou,38.3204,116.87
China,Kaifeng Chengguanzhen,34.85,114.35
China,Ji’an,27.1304,115
China,Linjiang,41.8363,126.936
China,Yangjiang,21.8504,111.97
China,Nagqu,31.48,92.05
China,Shashi,30.32,112.23
China,Guangshui,31.6204,114
China,Huangyan,28.65,121.25
China,Xiaoxita,30.7,111.28
China,Beian,48.239,126.482
China,Qingyuan,23.7004,113.0301
China,Chengjiao Chengguanzhen,34.4362,104.0306
China,Tongliao,43.62,122.27
China,Dunhuang,40.1427,94.662
China,Changzhi,36.1839,113.1053
China,Baiquan,47.6018,126.0819
China,Shizuishan,39.2333,106.769
China,Foshan,23.0301,113.12
China,Dadukou,26.55,101.73
China,Kashgar,39.4763,75.9699
China,Zhaodong,46.0804,125.98
China,Hegang,47.4,130.37
China,Yangquan,37.87,113.57
China,Yichun,27.8333,114.4
China,Shuangcheng,45.3503,126.28
China,Jiujiang,29.73,115.98
China,Xiping,25.6005,103.8166
China,Jingdezhen,29.2704,117.18
China,Zhanggu,30.9504,101.9167
China,Puqi,29.7204,113.88
China,Guilin,25.28,110.28
China,Jiutai,44.1447,125.8443
China,Zhuozhou,39.5401,115.79
China,Yanji,42.8823,129.5128
China,Jiaxing,30.7704,120.75
China,Siping,43.17,124.33
China,Pingdu,36.7904,119.94
China,Deyang,31.1333,104.4
China,Changxing,25.867,116.3167
China,Jixi,45.3,130.97
China,Gyangzê,28.95,89.6333
China,Jiaojiangcun,28.6804,121.45
China,Nantong,32.0304,120.825
China,Chaoyang,41.5504,120.42
China,Jiaozuo,35.25,113.22
China,Jiexiu,37.04,111.9
China,Qinggang,46.69,126.1
China,Beihai,21.4804,109.1
China,Dingzhou,38.5004,115
China,Kailu,43.5837,121.2
China,Wuwei,37.928,102.641
China,Yunxian Chengguanzhen,32.8082,110.8136
China,Gar,32.2004,79.9833
China,Jinzhou,41.1204,121.1
China,Pingxiang,27.62,113.85
China,Zhenjiang,32.22,119.43
China,Kaihua,23.3724,104.2497
China,Tangdong,25.97,113.4
China,Xin’an,34.38,118.35
China,Puyang Chengguanzhen,35.7004,114.98
China,Lianzhou,24.7815,112.3825
China,Rongjiawan,29.3801,113.1
China,Qamdo,31.1667,97.2333
China,Wuhai,39.6647,106.8122
China,Luoyang,34.68,112.4701
China,Hohhot,40.82,111.66
China,Wuxi,31.58,120.3
China,Shangqiu,34.4504,115.65
China,Shuyangzha,34.1299,118.7734
China,Xiping,40.08,113.3
China,Qarqan,38.1338,85.5333
China,Sanya,18.2591,109.504
China,Tangshan,39.6243,118.1944
China,Ningbo,29.88,121.55
China,Fujin,47.2704,132.02
China,Nanyang,33.0004,112.53
China,Wangqing,43.3248,129.7343
China,Suzhou,33.6361,116.9789
China,Hefei,31.85,117.28
China,Baotou,40.6522,109.822
China,Haikou,20.05,110.32
China,Linyi,35.08,118.33
China,Mishan,45.5504,131.88
China,Pingxiang,22.0974,106.7567
China,Jinshi,29.6321,111.8517
China,Nenjiang,49.18,125.23
China,Tongshan,34.28,117.18
China,Yantai,37.5304,121.4
China,Fuyu,45.1804,124.82
China,Zaozhuang,34.88,117.57
China,Ürümqi,43.805,87.575
China,Nanning,22.82,108.32
China,Wuyuan,41.0896,108.2722
China,Longyan,25.1804,117.03
China,Jingling,30.6501,113.16
China,Daqing,46.58,125
China,Lu’an,31.7503,116.48
China,Dezhou,37.4504,116.3
China,Neijiang,29.5804,105.05
China,Changde,29.03,111.68
China,Fushun,41.8654,123.87
China,Linhai,28.85,121.12
China,Suihua,46.6304,126.98
China,Tumen,42.97,129.8201
China,Zhoukou,33.6304,114.63
China,Liuzhou,24.28,109.25
China,Putian,25.4303,119.02
China,Ganzhou,25.92,114.95
China,Chuxiong,25.0364,101.5456
China,Turpan,42.9354,89.165
China,Luzhou,28.88,105.38
China,Xinzhou,38.4104,112.72
China,Xinyang,32.1304,114.07
China,Xiantao,30.3704,113.44
China,Zhanjiang,21.2,110.38
China,Tai’an,36.2,117.1201
China,Handan,36.58,114.48
China,Anshan,41.115,122.94
China,Shache,38.4261,77.25
China,Qiqihar,47.345,123.99
China,Suzhou,31.3005,120.62
China,Yishui,35.7904,118.62
China,Quzhou,28.9704,118.87
China,Dalai,45.5,124.3
China,Zhuanghe,39.6823,122.9619
China,Sanzhou,30.82,108.4
China,Hotan,37.0997,79.9269
China,Weifang,36.7204,119.1001
China,Wafangdian,39.6259,121.996
China,Gaoping,30.7804,106.13
China,Hongzhai,35.0476,104.6394
China,Harbin,45.75,126.65
China,Guiyang,26.58,106.72
China,Shancheng,34.7904,116.08
China,Nanjing,32.05,118.78
China,Kumul,42.827,93.515
China,Hechi,23.0965,109.6091
China,Xi’an,34.275,108.895
China,Chengdu,30.67,104.07
China,Dongguan,23.0489,113.7447
China,Suileng,47.246,127.106
China,Hangu,39.232,117.777
China,Shenyang,41.805,123.45
China,Anlu,31.27,113.67
China,Wenlan,23.3619,103.4061
China,Zhangzhou,24.5204,117.67
China,Heyuan,23.7304,114.68
China,Nichicun,29.5333,94.4167
China,Xinxing,47.1601,123.8
China,Chongqing,29.565,106.595
China,Tianjin,39.13,117.2
China,Wuhan,30.58,114.27
China,Shenzhen,22.5524,114.1221
China,Hoh Ereg,41.0955,111.4408
China,Jianguang,28.2004,115.77
China,Ningde,26.6804,119.5301
China,Chenzhou,25.8004,113.0301
China,Guangzhou,23.145,113.325
China,Gyêgu,33.0166,96.7333
China,Beijing,39.9289,116.3883
China,Shanghai,31.2165,121.4365
China,Baishan,41.9,126.43
China,Laiyang,36.9684,120.7084
China,Tieling,42.3004,123.82
China,Yucheng,29.9804,103.08
China,Jining,41.03,113.08
China,Tongchuanshi,35.08,109.03
China,Wenzhou,28.02,120.6501
China,Nanchang,28.68,115.88
China,Jilin,43.85,126.55
China,Yingmen,39.83,97.73
China,Shijiazhuang,38.05,114.48
China,Lianshan,40.7503,120.83
China,Yuanquan,40.5004,95.8
China,Xiamen,24.45,118.08
China,Lanzhou,36.056,103.792
China,Xiangtan,27.8504,112.9
China,Changsha,28.2,112.97
China,Fuzhou,26.08,119.3
China,Kuaidamao,41.68,125.75
China,Zhengzhou,34.755,113.6651
China,Dayan,26.8,100.2666
China,Hong’an,47.21,123.61
China,Shulan,44.4091,126.9487
China,Jinan,36.675,116.995
China,Qingdao,36.09,120.33
China,Taiyuan,37.875,112.5451
China,Kunming,25.07,102.68
China,Hangzhou,30.25,120.17
China,Zibo,36.8,118.05
China,Qitai,41.5494,113.5339
China,Aksu,41.15,80.25
China,Dalian,38.9228,121.6298
China,Tongyangdao,41.7676,109.9711
China,Changchun,43.865,125.34
China,Huizhou,23.08,114.4
China,Quanzhou,24.9,118.58
China,Shantou,23.37,116.67
China,Beidao,34.6,105.92
China,Golmud,36.4166,94.8833
China,Shuangshui,26.5944,104.8333
China,Tacheng,46.75,82.95
China,Xiulin,29.7004,112.4
China,Fuzhou,27.9703,116.36
China,Benxi,41.3304,123.75
China,Xining,36.62,101.77
China,Chaozhou,23.68,116.63
China,Zhijiang,27.4409,109.678
China,Huzhou,30.8704,120.1
China,Meizhou,24.3005,116.12
China,Hulin,45.769,132.9922
China,Qinhuangdao,39.9304,119.62
China,Ulanhot,46.08,122.08
China,Yuxi,24.38,102.57
China,Mudanjiang,44.575,129.59
China,Longjiang,47.3404,123.18
China,Binzhou,37.3704,118.02
China,Genhe,50.7833,121.5167
China,Heihe,50.25,127.446
China,Gaozhou,21.9204,110.87
China,Leshan,29.5671,103.7333
China,Ghulja,43.9,81.35
China,Lindong,43.9837,119.1834
China,Shaowu,27.3004,117.5
China,Beipiao,41.81,120.76
China,Xianyang,34.3456,108.7147
China,Yulin,22.63,110.15
China,Tangdukou,27,111.2001
China,Jiangjiafan,31.0304,112.1
China,Jining,35.4004,116.55
China,Karamay,45.5899,84.8599
China,Shangrao,28.4704,117.97
China,Yidu,30.3004,111.5
China,Zhuhai,22.2769,113.5678
China,Jiamusi,46.83,130.35
China,Nehe,48.49,124.88
China,Qingyuan,24.5004,108.6667
China,Liaocheng,36.4304,115.97
China,Hengyang,26.88,112.59
China,Luohe,33.57,114.03
China,Zhangye,38.93,100.45
China,Huaiyin,33.58,119.03
China,Tieli,46.9504,128.05
China,Ankang,32.68,109.02
China,Heze,35.23,115.45
China,Zhangjiakou Shi Xuanhua Qu,40.5944,115.0243
China,Jinhua,29.12,119.65
China,Yiyang,28.6004,112.33
China,Guangyuan,32.43,105.87
China,Ma’anshan,31.7304,118.48
China,Lhasa,29.645,91.1
China,Zhuzhou,27.83,113.15
China,Xiangyang,32.02,112.13
China,Mianyang,31.47,104.77
China,Houzhuang,35.62,111.21
China,Baicheng,45.62,122.82
China,Suining,30.5333,105.5333
China,Tongren,27.6804,109.13
China,Huainan,32.63,116.98
China,Ning’an,44.3313,129.4659
China,Chifeng,42.27,118.95
China,Qingnian,36.8504,115.68
China,Mizhou,35.99,119.3801
China,Huanren,41.2563,125.346
China,Qing’an,46.8719,127.5118
China,Yakeshi,49.2804,120.73
China,Dali,34.7953,109.9378
China,Xichang,27.88,102.3
China,Hebi,35.9504,114.22
China,Hailun,47.4504,126.93
China,Qinzhou,21.9504,108.62
China,Beichengqu,40.4547,113.1443
China,Yi’an,47.8804,125.3
China,Zhangjiakou,40.83,114.93
China,Baoding,38.8704,115.48
China,Oroqen Zizhiqi,50.5667,123.7167
China,Yong’an,31.0504,109.5167
China,Changzhou,31.78,119.97
China,Kuqa,41.7277,82.9364
China,Guangming,45.3304,122.78
China,Zigong,29.4,104.78
China,Hancheng,35.4704,110.43
Colombia,Sonsón,5.7166,-75.3166
Colombia,Tame,6.4603,-71.74
Colombia,Orocué,4.7946,-71.34
Colombia,El Carmen de Bolívar,9.7204,-75.13
Colombia,Tumaco,1.81,-78.81
Colombia,Sogamoso,5.72,-72.94
Colombia,Florencia,1.6104,-75.62
Colombia,Arjona,10.26,-75.35
Colombia,Mitú,1.1983,-70.1736
Colombia,Armenia,4.5343,-75.6811
Colombia,El Banco,9.0003,-73.98
Colombia,Chiquinquirá,5.6204,-73.8199
Colombia,Yopal,5.347,-72.406
Colombia,Ayapel,8.3304,-75.15
Colombia,Bogotá,4.5964,-74.0833
Colombia,Inírida,3.854,-67.9061
Colombia,Arauca,7.0907,-70.7616
Colombia,Leticia,-4.22,-69.94
Colombia,Valledupar,10.48,-73.25
Colombia,Garzón,2.2104,-75.65
Colombia,Socorro,6.4603,-73.27
Colombia,Pamplona,7.3904,-72.66
Colombia,Pereira,4.8104,-75.68
Colombia,San Andrés,12.5621,-81.6903
Colombia,Tuluá,4.0904,-76.21
Colombia,Santa Marta,11.2472,-74.2017
Colombia,Puerto Carreño,6.185,-67.493
Colombia,Lorica,9.2419,-75.816
Colombia,Tunja,5.5504,-73.37
Colombia,Bucaramanga,7.1301,-73.1259
Colombia,Ibagué,4.4389,-75.2322
Colombia,Medellín,6.275,-75.575
Colombia,Turbo,8.1004,-76.74
Colombia,Santiago de Tolú,9.5358,-75.572
Colombia,Nuquí,5.6852,-77.2745
Colombia,San Vicente del Caguán,2.0704,-74.64
Colombia,Sincelejo,9.2904,-75.38
Colombia,Guapí,2.5604,-77.86
Colombia,Ríohacha,11.5403,-72.91
Colombia,Mocoa,1.15,-76.63
Colombia,Manizales,5.06,-75.52
Colombia,Cartagena,10.3997,-75.5144
Colombia,San José del Guaviare,2.57,-72.64
Colombia,Honda,5.1903,-74.75
Colombia,Cartago,4.75,-75.91
Colombia,Barranquilla,10.96,-74.8
Colombia,Campoalegre,2.69,-75.33
Colombia,Túquerres,1.09,-77.6199
Colombia,Puerto Berrío,6.4804,-74.42
Colombia,Quibdó,5.6904,-76.66
Colombia,Yarumal,7.0306,-75.5905
Colombia,Popayán,2.42,-76.61
Colombia,Soledad,10.92,-74.77
Colombia,Villavicencio,4.1533,-73.635
Colombia,Juradó,7.1217,-77.7564
Colombia,San Martín,3.6904,-73.69
Colombia,Barrancabermeja,7.09,-73.85
Colombia,Magangué,9.23,-74.74
Colombia,Duitama,5.8305,-73.02
Colombia,Cúcuta,7.92,-72.52
Colombia,Ocaña,8.2404,-73.35
Colombia,Ipiales,0.8304,-77.65
Colombia,Ciénaga,11.0104,-74.25
Colombia,Cali,3.4,-76.5
Colombia,Sabanalarga,10.64,-74.92
Colombia,Bello,6.33,-75.57
Colombia,Neiva,2.931,-75.3302
Colombia,Buenaventura,3.8724,-77.0505
Colombia,Montería,8.7575,-75.89
Colombia,Puerto López,4.09,-72.96
Colombia,Girardot,4.31,-74.81
Colombia,Pasto,1.2136,-77.2811
Comoros,Moroni,-11.7042,43.2402
Comoros,Mutsamudu,-12.1658,44.3983
Comoros,Fomboni,-12.2842,43.7428
Cook Islands,Avarua,-21.25,-159.75
Costa Rica,Alajuela,10.02,-84.23
Costa Rica,Cartago,9.87,-83.93
Costa Rica,San José,9.935,-84.0841
Costa Rica,Ciudad Cortés,8.9604,-83.53
Costa Rica,Cañas,10.43,-85.1
Costa Rica,Sixaola,9.5204,-82.62
Costa Rica,Puerto Limón,10,-83.0333
Costa Rica,La Cruz,11.0704,-85.63
Costa Rica,Puntarenas,9.9702,-84.8336
Costa Rica,Liberia,10.6338,-85.4333
Costa Rica,Golfito,8.65,-83.15
Costa Rica,Quesada,10.3305,-84.44
Costa Rica,Heredia,9.992,-84.12
Croatia,Zadar,44.1201,15.2623
Croatia,Pula,44.8687,13.8481
Croatia,Pazin,45.2403,13.9367
Croatia,Varaždin,46.3044,16.3378
Croatia,Rijeka,45.33,14.45
Croatia,Dubrovnik,42.6609,18.0914
Croatia,Zagreb,45.8,16
Croatia,Virovitica,45.8319,17.3839
Croatia,Sisak,45.4661,16.3783
Croatia,Šibenik,43.7272,15.9058
Croatia,Požega,45.3403,17.6853
Croatia,Karlovac,45.4872,15.5478
Croatia,Čakovec,46.3844,16.4339
Croatia,Koprivnica,46.1628,16.8275
Croatia,Vukovar,45.3433,18.9997
Croatia,Krapina,46.1608,15.8789
Croatia,Split,43.5204,16.47
Croatia,Bjelovar,45.8986,16.8489
Croatia,Slavonski Brod,45.1603,18.0156
Croatia,Gospić,44.5461,15.3747
Croatia,Osijek,45.5504,18.68
Cuba,Manzanillo,20.3438,-77.1166
Cuba,Palma Soriano,20.2172,-75.9988
Cuba,Matanzas,23.0415,-81.5775
Cuba,Havana,23.132,-82.3642
Cuba,Sancti Spíritus,21.9301,-79.4425
Cuba,Artemisa,22.8134,-82.7619
Cuba,Nueva Gerona,21.8837,-82.8
Cuba,San José de las Lajas,22.9614,-82.1511
Cuba,Ciego de Ávila,21.84,-78.7619
Cuba,Holguín,20.8872,-76.2631
Cuba,Colón,22.7196,-80.9058
Cuba,Santiago de Cuba,20.025,-75.8213
Cuba,San Antonio de los Baños,22.8911,-82.4991
Cuba,Las Tunas,20.9601,-76.9544
Cuba,Banes,20.9629,-75.7186
Cuba,Placetas,22.3158,-79.6555
Cuba,Morón,22.1099,-78.6275
Cuba,Sagua la Grande,22.809,-80.0711
Cuba,Güines,22.8361,-82.028
Cuba,Camagüey,21.3808,-77.9169
Cuba,Guantánamo,20.1453,-75.2061
Cuba,Santa Clara,22.4,-79.9667
Cuba,Cienfuegos,22.1444,-80.4403
Cuba,Caibarién,22.5158,-79.4722
Cuba,Nuevitas,21.5456,-77.2644
Cuba,Pinar del Río,22.4175,-83.6981
Cuba,Bayamo,20.3795,-76.6433
Curaçao,Willemstad,12.2004,-69.02
Cyprus,Paphos,34.7559,32.4225
Cyprus,Kyrenia,35.3363,33.3173
Cyprus,Larnaca,34.917,33.636
Cyprus,Famagusta,35.1205,33.9389
Cyprus,Limassol,34.6754,33.0333
Cyprus,Nicosia,35.1667,33.3666
Czech Republic,České Budějovice,48.98,14.46
Czech Republic,Pardubice,50.0404,15.76
Czech Republic,Jihlava,49.4004,15.5833
Czech Republic,Ostrava,49.8304,18.25
Czech Republic,Hradec Králové,50.206,15.812
Czech Republic,Liberec,50.8,15.08
Czech Republic,Brno,49.2004,16.61
Czech Republic,Karlovy Vary,50.237,12.875
Czech Republic,Ústí nad Labem,50.663,14.081
Czech Republic,Zlín,49.2304,17.65
Czech Republic,Prague,50.0833,14.466
Czech Republic,Olomouc,49.63,17.25
Czech Republic,Plzeň,49.7404,13.36
Côte d'Ivoire,Bouaké,7.69,-5.03
Côte d'Ivoire,Korhogo,9.46,-5.64
Côte d'Ivoire,Abidjan,5.32,-4.04
Côte d'Ivoire,Toumodi,6.552,-5.019
Côte d'Ivoire,Guiglo,6.5505,-7.49
Côte d'Ivoire,Bouaflé,6.978,-5.748
Côte d'Ivoire,Daloa,6.89,-6.45
Côte d'Ivoire,Sassandra,4.9504,-6.0833
Côte d'Ivoire,Aboisso,5.4667,-3.2
Côte d'Ivoire,Yamoussoukro,6.8184,-5.2755
Côte d'Ivoire,Bondoukou,8.0304,-2.8
Côte d'Ivoire,Ferkessédougou,9.6004,-5.2
Côte d'Ivoire,Gagnoa,6.1504,-5.88
Côte d'Ivoire,Dabou,5.3204,-4.3899
Côte d'Ivoire,Abengourou,6.7304,-3.49
Côte d'Ivoire,Divo,5.839,-5.36
Côte d'Ivoire,San-Pédro,4.7704,-6.64
Côte d'Ivoire,Touba,8.28,-7.684
Côte d'Ivoire,Man,7.4004,-7.55
Côte d'Ivoire,Grand-Bassam,5.2004,-3.75
Côte d'Ivoire,Soubré,5.7904,-6.61
Côte d'Ivoire,Odienné,9.5104,-7.58
Côte d'Ivoire,Bangolo,7.0123,-7.4864
Côte d'Ivoire,Agboville,5.9403,-4.28
Côte d'Ivoire,Dimbokro,6.6505,-4.71
Côte d'Ivoire,Séguéla,7.9504,-6.67
Democratic Republic of the Congo,Dibaya,-6.5095,22.87
Democratic Republic of the Congo,Gbadolite,4.2904,21.0199
Democratic Republic of the Congo,Kamina,-8.73,25.01
Democratic Republic of the Congo,Goma,-1.6788,29.2218
Democratic Republic of the Congo,Mbandaka,0.04,18.26
Democratic Republic of the Congo,Bunia,1.5604,30.24
Democratic Republic of the Congo,Buta,2.82,24.74
Democratic Republic of the Congo,Yangambi,0.7704,24.43
Democratic Republic of the Congo,Kikwit,-5.03,18.85
Democratic Republic of the Congo,Ikela,-1.1829,23.2666
Democratic Republic of the Congo,Mwene-Ditu,-7,23.44
Democratic Republic of the Congo,Nyunzu,-5.9496,28.0167
Democratic Republic of the Congo,Butembo,0.13,29.28
Democratic Republic of the Congo,Kampene,-3.5995,26.67
Democratic Republic of the Congo,Mangai,-4.0396,19.53
Democratic Republic of the Congo,Inongo,-1.94,18.28
Democratic Republic of the Congo,Boma,-5.83,13.05
Democratic Republic of the Congo,Kananga,-5.89,22.4
Democratic Republic of the Congo,Bumba,2.19,22.46
Democratic Republic of the Congo,Wamba,2.1404,27.99
Democratic Republic of the Congo,Binga,2.3834,20.42
Democratic Republic of the Congo,Kabalo,-6.0496,26.91
Democratic Republic of the Congo,Kaniama,-7.5696,24.17
Democratic Republic of the Congo,Bolobo,-2.1595,16.24
Democratic Republic of the Congo,Kasongo-Lunda,-6.4796,16.83
Democratic Republic of the Congo,Luebo,-5.3495,21.41
Democratic Republic of the Congo,Libenge,3.6604,18.62
Democratic Republic of the Congo,Kasongo,-4.45,26.66
Democratic Republic of the Congo,Lusanga,-5.5829,16.5167
Democratic Republic of the Congo,Isiro,2.76,27.62
Democratic Republic of the Congo,Kindu,-2.9639,25.91
Democratic Republic of the Congo,Moba,-7.0596,29.72
Democratic Republic of the Congo,Dilolo,-10.6996,22.3333
Democratic Republic of the Congo,Lusambo,-4.9696,23.43
Democratic Republic of the Congo,Mangbwalu,1.9504,30.0333
Democratic Republic of the Congo,Gandajika,-6.7396,23.96
Democratic Republic of the Congo,Kasangulu,-4.5796,15.18
Democratic Republic of the Congo,Mushie,-3.0196,16.92
Democratic Republic of the Congo,Kalima,-2.5096,26.43
Democratic Republic of the Congo,Moanda,-5.9229,12.355
Democratic Republic of the Congo,Businga,3.3404,20.87
Democratic Republic of the Congo,Lodja,-3.4896,23.42
Democratic Republic of the Congo,Tshikapa,-6.41,20.77
Democratic Republic of the Congo,Kalemie,-5.9333,29.2
Democratic Republic of the Congo,Bosobolo,4.1904,19.88
Democratic Republic of the Congo,Luanza,-8.6996,28.7
Democratic Republic of the Congo,Gemena,3.26,19.77
Democratic Republic of the Congo,Mbanza-Ngungu,-5.2496,14.86
Democratic Republic of the Congo,Kambove,-10.8696,26.6
Democratic Republic of the Congo,Zongo,4.3303,18.615
Democratic Republic of the Congo,Uvira,-3.37,29.14
Democratic Republic of the Congo,Kenge,-4.8296,16.8999
Democratic Republic of the Congo,Bongandanga,1.5104,21.05
Democratic Republic of the Congo,Watsa,3.04,29.53
Democratic Republic of the Congo,Kabinda,-6.1296,24.48
Democratic Republic of the Congo,Likasi,-10.97,26.78
Democratic Republic of the Congo,Matadi,-5.8166,13.45
Democratic Republic of the Congo,Kimpese,-5.5496,14.4333
Democratic Republic of the Congo,Lisala,2.14,21.51
Democratic Republic of the Congo,Mbuji-Mayi,-6.15,23.6
Democratic Republic of the Congo,Kipushi,-11.7596,27.25
Democratic Republic of the Congo,Ilebo,-4.3196,20.61
Democratic Republic of the Congo,Basoko,1.2404,23.59
Democratic Republic of the Congo,Kahemba,-7.2829,19
Democratic Republic of the Congo,Bandundu,-3.31,17.38
Democratic Republic of the Congo,Bukavu,-2.51,28.84
Democratic Republic of the Congo,Lubutu,-0.7329,26.5833
Democratic Republic of the Congo,Boende,-0.2196,20.86
Democratic Republic of the Congo,Manono,-7.3,27.45
Democratic Republic of the Congo,Kinshasa,-4.3297,15.315
Democratic Republic of the Congo,Kisangani,0.52,25.22
Democratic Republic of the Congo,Kongolo,-5.3795,26.98
Democratic Republic of the Congo,Lubumbashi,-11.68,27.48
Democratic Republic of the Congo,Bondo,3.81,23.67
Democratic Republic of the Congo,Mwenga,-3.0382,28.4325
Democratic Republic of the Congo,Beni,0.4904,29.45
Democratic Republic of the Congo,Buluko,-0.757,28.528
Democratic Republic of the Congo,Bukama,-9.2096,25.84
Democratic Republic of the Congo,Bafwasende,1.0838,27.2666
Democratic Republic of the Congo,Kasaji,-10.3662,23.45
Democratic Republic of the Congo,Mweka,-4.8396,21.57
Democratic Republic of the Congo,Kolwezi,-10.7167,25.4724
Democratic Republic of the Congo,Tshela,-4.9696,12.93
Democratic Republic of the Congo,Aketi,2.7405,23.78
Democratic Republic of the Congo,Lubao,-5.3896,25.75
Democratic Republic of the Congo,Bulungu,-4.5496,18.6
Democratic Republic of the Congo,Demba,-5.5096,22.26
Democratic Republic of the Congo,Basankusu,1.2337,19.8
Denmark,Aarhus,56.1572,10.2107
Denmark,Viborg,56.4333,9.4
Denmark,Esbjerg,55.467,8.45
Denmark,Roskilde,55.65,12.0833
Denmark,Frederikshavn,57.4337,10.5333
Denmark,Sorø,55.433,11.5667
Denmark,Odense,55.4004,10.3833
Denmark,Copenhagen,55.6786,12.5635
Denmark,Svendborg,55.0704,10.6167
Denmark,Aalborg,57.0337,9.9166
Denmark,Hillerød,55.9333,12.3167
Denmark,Vejle,55.709,9.535
Djibouti,Dikhil,11.104,42.372
Djibouti,Ali Sabieh,11.1562,42.7125
Djibouti,Obock,11.9734,43.2856
Djibouti,Arta,11.5264,42.8519
Djibouti,Djibouti,11.595,43.148
Djibouti,Tadjourah,11.7833,42.9
Dominica,Roseau,15.301,-61.387
Dominican Republic,Barahona,18.2004,-71.1
Dominican Republic,Comendador,18.876,-71.707
Dominican Republic,Samaná,19.212,-69.332
Dominican Republic,San Francisco de Macorís,19.3,-70.25
Dominican Republic,Salcedo,19.383,-70.4167
Dominican Republic,San Cristóbal,18.416,-70.109
Dominican Republic,El Seibo,18.764,-69.035
Dominican Republic,Bonao,18.942,-70.409
Dominican Republic,Nagua,19.376,-69.847
Dominican Republic,Baní,18.28,-70.331
Dominican Republic,Monte Plata,18.807,-69.784
Dominican Republic,Sabaneta,19.505,-71.345
Dominican Republic,Santiago,19.5,-70.67
Dominican Republic,Azua,18.454,-70.729
Dominican Republic,Santo Domingo Este,18.4885,-69.8571
Dominican Republic,Higüey,18.616,-68.708
Dominican Republic,Moca,19.397,-70.523
Dominican Republic,San Juan,18.807,-71.229
Dominican Republic,Pedernales,18.038,-71.741
Dominican Republic,Jimaní,18.493,-71.851
Dominican Republic,Hato Mayor,18.764,-69.257
Dominican Republic,Puerto Plata,19.7902,-70.6902
Dominican Republic,Santo Domingo,18.4701,-69.9001
Dominican Republic,Bávaro,18.717,-68.45
Dominican Republic,San Pedro de Macorís,18.4504,-69.3
Dominican Republic,La Romana,18.417,-68.9666
Dominican Republic,Dajabón,19.548,-71.705
Dominican Republic,Neiba,18.4666,-71.4166
Dominican Republic,Monte Cristi,19.867,-71.65
Dominican Republic,Mao,19.552,-71.075
Dominican Republic,Cotuí,19.059,-70.152
Dominican Republic,La Vega,19.2166,-70.5166
Ecuador,Esmeraldas,0.9304,-79.67
Ecuador,Ambato,-1.2696,-78.62
Ecuador,Tulcán,0.822,-77.732
Ecuador,Piñas,-3.67,-79.65
Ecuador,Ibarra,0.3604,-78.13
Ecuador,Milagro,-2.1796,-79.6
Ecuador,Guayaquil,-2.22,-79.92
Ecuador,Riobamba,-1.67,-78.65
Ecuador,Cuenca,-2.9,-79
Ecuador,Zamora,-4.0696,-78.97
Ecuador,Puerto Villamil,-0.9333,-91.0167
Ecuador,Santa Elena,-2.2262,-80.8587
Ecuador,Yaupi,-2.8543,-77.9363
Ecuador,Chone,-0.6896,-80.09
Ecuador,Loja,-3.99,-79.21
Ecuador,Santa Cruz,-0.5333,-90.35
Ecuador,San Gabriel,0.61,-77.84
Ecuador,Tena,-0.9796,-77.81
Ecuador,Sangolquí,-0.31,-78.46
Ecuador,Machala,-3.26,-79.96
Ecuador,Portoviejo,-1.06,-80.46
Ecuador,San Lorenzo de Esmeraldas,1.2704,-78.8601
Ecuador,Alausí,-2.19,-78.85
Ecuador,Puerto Baquerizo Moreno,-0.9,-89.6
Ecuador,Jipijapa,-1.3496,-80.58
Ecuador,Babahoyo,-1.7996,-79.54
Ecuador,Guaranda,-1.61,-79.01
Ecuador,Puerto Francisco de Orellana,-0.4664,-76.9872
Ecuador,Latacunga,-0.9296,-78.61
Ecuador,Azogues,-2.74,-78.84
Ecuador,Santo Domingo de los Colorados,-0.253,-79.1754
Ecuador,Muisne,0.61,-80.02
Ecuador,Quito,-0.215,-78.5001
Ecuador,Manta,-0.98,-80.73
Ecuador,Cayambe,0.0504,-78.16
Ecuador,Puyo,-1.483,-77.987
Ecuador,Macará,-4.3796,-79.95
Ecuador,Nueva Loja,0.0906,-76.8884
Ecuador,Macas,-2.3096,-78.12
Ecuador,Valdez,1.2671,-78.9855
Ecuador,Salinas,-2.2,-80.98
Egypt,Al Minyā,28.09,30.75
Egypt,Asyūţ,27.19,31.1799
Egypt,Banī Suwayf,29.0804,31.09
Egypt,Aḑ Ḑab‘ah,31.0338,28.4333
Egypt,Qaşr al Farāfirah,27.0671,27.9666
Egypt,Marsá Maţrūḩ,31.3504,27.23
Egypt,Rosetta,31.4604,30.39
Egypt,Jirjā,26.3304,31.88
Egypt,As Sallūm,31.567,25.15
Egypt,Ţanţā,30.7904,31
Egypt,Mallawī,27.7304,30.84
Egypt,Aţ Ţūr,28.2394,33.6148
Egypt,Kafr ash Shaykh,31.109,30.936
Egypt,Al ‘Alamayn,30.8171,28.95
Egypt,Damanhūr,31.0504,30.47
Egypt,Safājā,26.7337,33.9333
Egypt,Al Qaşr,25.7004,28.8833
Egypt,Damietta,31.4204,31.82
Egypt,Cairo,30.05,31.25
Egypt,Barnīs,23.946,35.4842
Egypt,Banī Mazār,28.4904,30.81
Egypt,Al ‘Arīsh,31.1249,33.8006
Egypt,Al Fayyūm,29.31,30.84
Egypt,Suez,30.005,32.5499
Egypt,Giza,30.01,31.19
Egypt,Banhā,30.4667,31.1833
Egypt,Sīwah,29.2,25.5167
Egypt,Al Manşūrah,31.0504,31.38
Egypt,Qinā,26.1505,32.72
Egypt,Samālūţ,28.3004,30.71
Egypt,Al Khārijah,25.44,30.55
Egypt,Aswān,24.0875,32.8989
Egypt,Sūhāj,26.5504,31.7
Egypt,Ismailia,30.5903,32.26
Egypt,Shibīn al Kawm,30.592,30.9
Egypt,Al Ghardaqah,27.23,33.83
Egypt,Luxor,25.7,32.65
Egypt,Isnā,25.2904,32.5499
Egypt,Alexandria,31.2,29.95
Egypt,Port Said,31.26,32.29
Egypt,Kawm Umbū,24.47,32.95
Egypt,Az Zaqāzīq,30.5833,31.5167
El Salvador,San Miguel,13.4833,-88.1833
El Salvador,Sonsonate,13.72,-89.73
El Salvador,Chalatenango,14.072,-89.094
El Salvador,San Salvador,13.71,-89.203
El Salvador,Zacatecoluca,13.508,-88.868
El Salvador,San Vicente,13.641,-88.785
El Salvador,San Francisco,13.7,-88.1
El Salvador,La Unión,13.332,-87.839
El Salvador,Santa Ana,13.9946,-89.5598
El Salvador,Cojutepeque,13.7167,-88.9333
El Salvador,Ahuachapán,13.919,-89.845
El Salvador,Santa Tecla,13.674,-89.29
El Salvador,Usulután,13.346,-88.432
El Salvador,Sensuntepeque,13.88,-88.63
Equatorial Guinea,Luba,3.45,8.55
Equatorial Guinea,Evinayong,1.45,10.5667
Equatorial Guinea,Bata,1.87,9.77
Equatorial Guinea,Mongomo,1.6337,11.3166
Equatorial Guinea,Ebebiyín,2.1511,11.3353
Equatorial Guinea,Palé,-1.4014,5.6325
Equatorial Guinea,Calatrava,1.1164,9.4186
Equatorial Guinea,Malabo,3.75,8.7833
Eritrea,Barentu,15.1058,37.5907
Eritrea,Ak’ordat,15.549,37.8867
Eritrea,Asmara,15.3333,38.9333
Eritrea,Assab,13.01,42.73
Eritrea,Massawa,15.6101,39.45
Eritrea,Mendefera,14.886,38.8163
Eritrea,Keren,15.6804,38.45
Eritrea,Teseney,15.1104,36.6575
Estonia,Haapsalu,58.9431,23.5414
Estonia,Kohtla-Järve,59.4,27.2833
Estonia,Tartu,58.3839,26.7099
Estonia,Põlva,58.0603,27.0694
Estonia,Võru,57.8339,27.0194
Estonia,Kärdla,58.9978,22.7492
Estonia,Paide,58.8856,25.5572
Estonia,Rapla,59.0072,24.7928
Estonia,Kuressaare,58.2481,22.5039
Estonia,Pärnu,58.3747,24.5136
Estonia,Tallinn,59.4339,24.728
Estonia,Jõhvi,59.3592,27.4211
Estonia,Viljandi,58.3639,25.59
Estonia,Rakvere,59.3464,26.3558
Estonia,Valga,57.7744,26.0453
Estonia,Jõgeva,58.7467,26.3939
Estonia,Narva,59.3776,28.1603
Ethiopia,Gīmbī,9.167,35.8333
Ethiopia,Gambēla,8.25,34.5833
Ethiopia,Āsosa,10.067,34.5333
Ethiopia,Āwasa,7.06,38.477
Ethiopia,Mekele,13.5,39.47
Ethiopia,Ādīgrat,14.2804,39.47
Ethiopia,Hosa’ina,7.5504,37.85
Ethiopia,Gonder,12.61,37.46
Ethiopia,Batī,11.1837,40.0166
Ethiopia,Yirga ‘Alem,6.7504,38.41
Ethiopia,Desē,11.13,39.63
Ethiopia,Addis Ababa,9.0333,38.7
Ethiopia,Nazrēt,8.55,39.27
Ethiopia,Bahir Dar,11.6001,37.3833
Ethiopia,Jijiga,9.3504,42.79
Ethiopia,Sodo,6.9,37.75
Ethiopia,Goba,7.01,39.97
Ethiopia,Jīma,7.68,36.83
Ethiopia,Dembī Dolo,8.5337,34.8
Ethiopia,Nek’emtē,9.0905,36.53
Ethiopia,Gorē,8.149,35.537
Ethiopia,Dire Dawa,9.59,41.86
Ethiopia,Āsela,7.9504,39.1399
Ethiopia,Debre Birhan,9.6804,39.53
Ethiopia,Giyon,8.5304,37.97
Ethiopia,Harar,9.32,42.15
Ethiopia,Godē,5.95,43.45
Ethiopia,Ārba Minch’,6.04,37.55
Ethiopia,Semera,11.7956,41.0086
Ethiopia,Debre Mark’os,10.34,37.72
Ethiopia,Shashemenē,7.2004,38.59
Ethiopia,Negēlē,5.3166,39.5833
Ethiopia,Āksum,14.1304,38.72
Ethiopia,Dolo Bay,4.1833,42.0833
Ethiopia,Hāgere Hiywet,8.9804,37.85
Ethiopia,Dīla,6.4104,38.31
Falkland Islands (Islas Malvinas),Stanley,-51.7,-57.85
Faroe Islands,Sørvágur,62.0717,-7.3066
Faroe Islands,Sandur,61.8344,-6.8171
Faroe Islands,Fámjin,61.5248,-6.8794
Faroe Islands,Klaksvík,62.2375,-6.539
Faroe Islands,Húsavík,61.8099,-6.6813
Faroe Islands,Kunoy,62.2917,-6.6702
Faroe Islands,Skopun,61.9028,-6.8823
Faroe Islands,Viðareiði,62.36,-6.5313
Faroe Islands,Kirkja,62.3263,-6.3238
Faroe Islands,Skúvoy,61.771,-6.805
Faroe Islands,Toftir,62.0978,-6.7369
Faroe Islands,Fuglafjørður,62.2448,-6.815
Faroe Islands,Norðragøta,62.199,-6.7432
Faroe Islands,Skálavík,61.8314,-6.6623
Faroe Islands,Hvannasund,62.2962,-6.5204
Faroe Islands,Tórshavn,62.03,-6.82
Faroe Islands,Hov,61.5068,-6.7599
Faroe Islands,Oyrarbakki,62.2079,-6.9997
Faroe Islands,Strendur,62.1096,-6.7617
Faroe Islands,Vestmanna,62.1548,-7.169
Faroe Islands,Saltangará,62.1156,-6.7206
Faroe Islands,Eiði,62.2995,-7.0924
Faroe Islands,Sumba,61.4055,-6.709
Faroe Islands,Hvalba,61.6024,-6.9606
Faroe Islands,Sandavágur,62.0537,-7.1498
Faroe Islands,Porkeri,61.4814,-6.745
Faroe Islands,Vágur,61.4733,-6.8175
Faroe Islands,Tvøroyri,61.5544,-6.8063
Faroe Islands,Kvívík,62.1186,-7.0737
Fiji,Labasa,-16.4166,179.3833
Fiji,Nadi,-17.7996,177.4166
Fiji,Lautoka,-17.6161,177.4666
Fiji,Suva,-18.133,178.4417
Finland,Kouvola,60.876,26.709
Finland,Pori,61.4789,21.7749
Finland,Helsinki,60.1756,24.9341
Finland,Hämeenlinna,60.997,24.472
Finland,Rovaniemi,66.5,25.7159
Finland,Kemi,65.7333,24.5817
Finland,Joensuu,62.6,29.7666
Finland,Tampere,61.5,23.75
Finland,Kajaani,64.2333,27.6833
Finland,Seinäjoki,62.8,22.8333
Finland,Savonlinna,61.8666,28.8833
Finland,Kemijärvi,66.6667,27.4167
Finland,Kuopio,62.8943,27.6949
Finland,Lappeenranta,61.0671,28.1833
Finland,Jyväskylä,62.2603,25.75
Finland,Oulu,65,25.47
Finland,Vaasa,63.1,21.6
Finland,Lahti,60.9939,25.6649
Finland,Sodankylä,67.4171,26.6
Finland,Porvoo,60.4004,25.666
Finland,Mikkeli,61.69,27.285
Finland,Kokkola,63.8333,23.1167
Finland,Turku,60.4539,22.255
Finland,Mariehamn,60.1,19.95
France,Metz,49.1203,6.18
France,Clermont-Ferrand,45.78,3.08
France,Lille,50.65,3.08
France,Melun,48.5333,2.6666
France,Arras,50.2833,2.7833
France,Lyon,45.77,4.83
France,Rennes,48.1,-1.67
France,Marseille,43.29,5.375
France,Strasbourg,48.58,7.75
France,Nantes,47.2104,-1.59
France,Orléans,47.9004,1.9
France,Annecy,45.9,6.1167
France,Auxerre,47.8004,3.5666
France,Cherbourg,49.6504,-1.65
France,Troyes,48.3404,4.0834
France,Nîmes,43.8304,4.35
France,Besançon,47.23,6.03
France,Dijon,47.3304,5.03
France,Agen,44.2004,0.6333
France,Paris,48.8667,2.3333
France,Montpellier,43.6104,3.87
France,Roanne,46.0333,4.0667
France,Tours,47.3804,0.6999
France,Mulhouse,47.7504,7.35
France,Grenoble,45.1804,5.72
France,Brive-la-Gaillarde,45.1504,1.5333
France,Le Havre,49.505,0.105
France,Biarritz,43.4733,-1.5616
France,Angers,47.48,-0.53
France,Nevers,46.9837,3.1667
France,Calais,50.9504,1.8333
France,Toulouse,43.62,1.4499
France,Vichy,46.1171,3.4167
France,La Rochelle,46.1667,-1.15
France,Bourges,47.0837,2.4
France,Caen,49.1838,-0.35
France,Rouen,49.4304,1.08
France,Nice,43.715,7.265
France,Dieppe,49.9337,1.0833
France,Bastia,42.7032,9.45
France,Saint-Brieuc,48.5167,-2.7833
France,Béziers,43.3505,3.21
France,Lorient,47.7504,-3.3666
France,Limoges,45.83,1.25
France,Versailles,48.8005,2.1333
France,Poitiers,46.5833,0.3333
France,Perpignan,42.7,2.9
France,Toulon,43.1342,5.9188
France,Le Mans,48.0004,0.1
France,Tarbes,43.2333,0.0833
France,Aix-en-Provence,43.52,5.45
France,Amiens,49.9004,2.3
France,Reims,49.2504,4.03
France,Bordeaux,44.85,-0.595
France,Brest,48.3904,-4.495
France,Saint-Étienne,45.4304,4.38
France,Nancy,48.6837,6.2
France,Ajaccio,41.9271,8.7283
French Guiana,Roura,4.73,-52.33
French Guiana,Iracoubo,5.4804,-53.22
French Guiana,Saint-Laurent-du-Maroni,5.4976,-54.0325
French Guiana,Saint-Georges,3.9105,-51.81
French Guiana,Sinnamary,5.38,-52.96
French Guiana,Kourou,5.16,-52.6499
French Guiana,Cayenne,4.933,-52.33
French Polynesia,Papeete,-17.5334,-149.5667
Gabon,Makokou,0.5671,12.8666
Gabon,Libreville,0.3854,9.458
Gabon,Gamba,-2.65,10
Gabon,Moanda,-1.5655,13.2
Gabon,Tchibanga,-2.857,11.027
Gabon,Mékambo,1.0171,13.9333
Gabon,Port-Gentil,-0.72,8.78
Gabon,Omboué,-1.5662,9.25
Gabon,Koulamoutou,-1.1329,12.4833
Gabon,Mitzic,0.7837,11.5666
Gabon,Bitam,2.0837,11.4834
Gabon,Bifoun,-0.3329,10.3832
Gabon,Mouila,-1.8662,11.0167
Gabon,Mayumba,-3.4166,10.65
Gabon,Oyem,1.6166,11.5833
Gabon,Franceville,-1.6333,13.5833
Gabon,Ndendé,-2.3829,11.3833
Gabon,Okondja,-0.6829,13.7833
Gabon,Lambaréné,-0.6996,10.2166
Georgia,P’ot’i,42.1557,41.6716
Georgia,Ozurgeti,41.9244,42.0068
Georgia,Kutaisi,42.25,42.73
Georgia,Rustavi,42.2897,43.8543
Georgia,Ambrolauri,42.5211,43.1622
Georgia,Gori,41.9842,44.1158
Georgia,Akhaltsikhe,41.639,42.9826
Georgia,Tbilisi,41.725,44.7908
Georgia,Mtskheta,41.8451,44.7188
Georgia,Rust’avi,41.5704,45.05
Georgia,Telavi,41.9198,45.4732
Georgia,Sokhumi,43.02,41.02
Georgia,Batumi,41.6,41.63
Georgia,Zugdidi,42.5088,41.8709
Georgia,Ts’khinvali,42.2325,43.975
Germany,Braunschweig,52.25,10.5
Germany,Kassel,51.3,9.5
Germany,Osnabrück,52.2804,8.05
Germany,Augsburg,48.35,10.9
Germany,Cottbus,51.7704,14.33
Germany,Jena,50.9304,11.58
Germany,Nuremberg,49.45,11.08
Germany,Magdeburg,52.1304,11.62
Germany,Rosenheim,47.8503,12.1333
Germany,Hof,50.317,11.9167
Germany,Gera,50.8704,12.07
Germany,Wuppertal,51.25,7.17
Germany,Kiel,54.3304,10.13
Germany,Bielefeld,52.03,8.53
Germany,Dortmund,51.53,7.45
Germany,Potsdam,52.4004,13.07
Germany,Münster,51.9704,7.62
Germany,Regensburg,49.0204,12.12
Germany,Hannover,52.367,9.7167
Germany,Flensburg,54.7837,9.4333
Germany,Ingolstadt,48.7704,11.45
Germany,Fürth,49.47,11
Germany,Göttingen,51.5204,9.92
Germany,Oldenburg,53.13,8.22
Germany,Chemnitz,50.83,12.92
Germany,Karlsruhe,49,8.4
Germany,Düsseldorf,51.2204,6.78
Germany,Koblenz,50.3505,7.6
Germany,Heidelberg,49.42,8.7
Germany,Cologne,50.93,6.95
Germany,Saarbrücken,49.2504,6.97
Germany,Leipzig,51.3354,12.41
Germany,Emden,53.3667,7.2167
Germany,Berlin,52.5218,13.4015
Germany,Schwerin,53.6333,11.4167
Germany,Erfurt,50.9701,11.03
Germany,Freiburg im Breisgau,48.0004,7.8699
Germany,Bonn,50.7205,7.08
Germany,Rostock,54.0704,12.15
Germany,Passau,48.567,13.4666
Germany,Würzburg,49.8004,9.95
Germany,Lübeck,53.8704,10.67
Germany,Wiesbaden,50.0804,8.25
Germany,Mainz,49.9825,8.2732
Germany,Gießen,50.5837,8.65
Germany,Ulm,48.4004,10
Germany,Dresden,51.05,13.75
Germany,Hamburg,53.55,10
Germany,Stralsund,54.3004,13.1
Germany,Essen,51.45,7.0166
Germany,Bremen,53.08,8.8
Germany,Duisburg,51.43,6.75
Germany,Frankfurt,50.1,8.675
Germany,Coburg,50.2666,10.9666
Germany,Bremerhaven,53.5504,8.58
Germany,Munich,48.1299,11.575
Germany,Stuttgart,48.78,9.2
Germany,Mannheim,49.5004,8.47
Ghana,Nalerigu,10.5273,-0.3698
Ghana,Accra,5.55,-0.2167
Ghana,Winneba,5.3504,-0.63
Ghana,Sekondi,4.9433,-1.704
Ghana,Damongo,9.083,-1.8188
Ghana,Cape Coast,5.1104,-1.25
Ghana,Bawku,11.0604,-0.24
Ghana,Yendi,9.4337,-0.0167
Ghana,Tamale,9.4004,-0.84
Ghana,Sefwi Wiawso,6.2058,-2.4894
Ghana,Tema,5.6404,0.01
Ghana,Techiman,7.5905,-1.9395
Ghana,Wa,10.0604,-2.5
Ghana,Bolgatanga,10.7904,-0.85
Ghana,Ho,6.6004,0.47
Ghana,Goaso,6.8036,-2.5172
Ghana,Kumasi,6.69,-1.63
Ghana,Obuase,6.1904,-1.66
Ghana,Dambai,8.0662,0.1795
Ghana,Berekum,7.4504,-2.59
Ghana,Sunyani,7.336,-2.336
Ghana,Koforidua,6.0904,-0.26
Ghana,Nkawkaw,6.5505,-0.78
Gibraltar,Gibraltar,36.1324,-5.3781
Greece,Piraeus,37.95,23.7
Greece,Athens,37.9833,23.7333
Greece,Ródos,36.4412,28.2225
Greece,Agrínio,38.6218,21.4077
Greece,Trípoli,37.5091,22.3794
Greece,Kérkyra,39.6154,19.9147
Greece,Irákleio,35.325,25.1305
Greece,Polýgyros,40.381,23.453
Greece,Pýrgos,37.6837,21.45
Greece,Chíos,38.3681,26.1358
Greece,Kateríni,40.2723,22.5025
Greece,Vólos,39.37,22.95
Greece,Kozáni,40.3007,21.789
Greece,Lárisa,39.6304,22.42
Greece,Alexandroúpoli,40.8486,25.8744
Greece,Xánthi,41.1418,24.8836
Greece,Ioánnina,39.6679,20.8509
Greece,Ermoúpoli,37.4504,24.9333
Greece,Kos,36.8937,27.2888
Greece,Kavála,40.9412,24.4018
Greece,Thessaloníki,40.6961,22.885
Greece,Komotiní,41.1333,25.4167
Greece,Mytilíni,39.1104,26.5546
Greece,Pátra,38.23,21.73
Greece,Sérres,41.086,23.5497
Greece,Chaniá,35.5122,24.0156
Greece,Spárti,37.0737,22.4297
Greece,Lamía,38.899,22.434
Greece,Kalamáta,37.0389,22.1142
Greece,Chalkída,38.464,23.6124
Greece,Siteía,35.2004,26.0986
Greenland,Ilulissat,69.2167,-51.1
Greenland,Qasigiannguit,68.8193,-51.1785
Greenland,Tasiusaq,73.369,-56.0598
Greenland,Aasiaat,68.7167,-52.8667
Greenland,Timmiarmiut,62.5333,-42.2167
Greenland,Kraulshavn,74.121,-57.0674
Greenland,Nuuk,64.1983,-51.7327
Greenland,Godhavn,69.2442,-53.5652
Greenland,Scoresbysund,70.4834,-21.9667
Greenland,Kullorsuaq,74.5781,-57.225
Greenland,Kangersuatsiaq,72.3796,-55.5491
Greenland,Upernavik,72.7094,-56.1417
Greenland,Qaqortoq,60.7289,-46.0364
Greenland,Uummannaq,70.675,-52.1229
Greenland,Tasiilaq,65.6019,-37.6337
Greenland,Savissivik,76.0195,-65.1125
Greenland,Qaanaaq,77.4835,-69.3322
Greenland,Sisimiut,66.95,-53.6666
Greenland,Kulusuk,65.5666,-37.1833
Greenland,Nord,81.7166,-17.8
Greenland,Narsarsuaq,61.1666,-45.4166
Greenland,Paamiut,62.0041,-49.6351
Grenada,Saint George’s,12.0526,-61.7416
Guadeloupe,Lasserre,16.2304,-61.44
Guadeloupe,Pointe-à-Pitre,16.2415,-61.533
Guadeloupe,Basse-Terre,16,-61.7167
Guam,Maina,13.4692,144.7332
Guam,Hagåtña,13.4745,144.7504
Guatemala,Lívingston,15.8307,-88.7562
Guatemala,Flores,16.9337,-89.8833
Guatemala,Antigua Guatemala,14.5667,-90.7333
Guatemala,Jutiapa,14.29,-89.9
Guatemala,Santa Cruz del Quiché,15.0333,-91.1333
Guatemala,Escuintla,14.3004,-90.78
Guatemala,Zacapa,14.972,-89.529
Guatemala,Retalhuleu,14.5371,-91.677
Guatemala,Jalapa,14.633,-89.989
Guatemala,Huehuetenango,15.3204,-91.47
Guatemala,La Libertad,16.7804,-90.12
Guatemala,Chiquimula,14.797,-89.544
Guatemala,Sololá,14.773,-91.183
Guatemala,Chimaltenango,14.662,-90.82
Guatemala,Cuilapa,14.279,-90.298
Guatemala,Mazatenango,14.5304,-91.51
Guatemala,Quetzaltenango,14.83,-91.52
Guatemala,Cobán,15.47,-90.38
Guatemala,Puerto San José,13.9397,-90.82
Guatemala,Puerto Barrios,15.7175,-88.5927
Guatemala,Guastatoya,14.85,-90.0167
Guatemala,San Marcos,14.966,-91.8
Guatemala,Salamá,15.103,-90.314
